,cep,cidade,uf,latitude,longitude,SK_Localizacoes
0,99990,muliterno,RS,-28.329594612121586,-51.76936149597168,1
1,99980,david canabarro,RS,-28.3891291985145,-51.8438359774076,2
2,99970,ciriaco,RS,-28.343838500976563,-51.8746223449707,3
3,99970,ciríaco,RS,-28.34232521057129,-51.87602233886719,4
4,99965,agua santa,RS,-28.18337217966716,-52.03985087076823,5
5,99960,charrua,RS,-27.953721618652345,-52.02551193237305,6
6,99955,vila langaro,RS,-28.11077671051025,-52.14372291564941,7
7,99955,vila lângaro,RS,-28.126163482666016,-52.14444732666016,8
8,99952,santa cecilia do sul,RS,-28.171198844909668,-51.90856742858887,9
9,99950,tapejara,RS,-28.06895861906164,-52.01206793192944,10
10,99940,ibiaca,RS,-28.057343329152754,-51.85598619522587,11
11,99940,ibiaçá,RS,-28.056610425313316,-51.85683441162109,12
12,99930,estacao,RS,-27.91383217120993,-52.25914935407968,13
13,99930,estação,RS,-27.916710535685223,-52.25523249308268,14
14,99925,ipiranga do sul,RS,-27.93672604031033,-52.42664464314779,15
15,99920,erebango,RS,-27.85525369644165,-52.30090618133545,16
16,99910,floriano peixoto,RS,-27.8589604695638,-52.075286865234375,17
17,99900,getulio vargas,RS,-27.88676527069836,-52.22840127712343,18
18,99900,getúlio vargas,RS,-27.886073303222656,-52.22879409790039,19
19,99895,santo expedito do sul,RS,-27.930038070678712,-51.65968093872071,20
20,99890,maximiliano de almeida,RS,-27.63177846825641,-51.80471967614216,21
21,99880,machadinho,RS,-27.56786012649536,-51.668006896972656,22
22,99878,tupanci do sul,RS,-27.922619819641117,-51.53873062133789,23
23,99870,sao jose do ouro,RS,-27.81340283763652,-51.58352412009726,24
24,99870,são josé do ouro,RS,-28.22743511199951,-51.48959255218506,25
25,99860,cacique doble,RS,-27.772162605734437,-51.66196037741268,26
26,99855,sao joao da urtiga,RS,-27.99637010362413,-52.22676595052084,27
27,99855,são joão da urtiga,RS,-27.816570663452147,-51.83005294799805,28
28,99850,paim filho,RS,-27.71013710715554,-51.76330462369052,29
29,99840,sananduva,RS,-27.950143232578185,-51.80988623456257,30
30,99839,gaurama,RS,-27.586950302124023,-52.09247970581055,31
31,99838,centenario,RS,-27.765792846679688,-52.00371742248535,32
32,99835,aurea,RS,-27.69549306233724,-52.05341498057047,33
33,99835,áurea,RS,-27.695009231567383,-52.05507659912109,34
34,99830,gaurama,RS,-27.58703136444092,-52.09274838765462,35
35,99825,carlos gomes,RS,-27.71592426300049,-51.91482162475586,36
36,99820,viadutos,RS,-27.5696717775785,-52.02140544011043,37
37,99810,severiano de almeida,RS,-27.43156978062221,-52.1173346383231,38
38,99800,marcelino ramos,RS,-27.47026797703334,-51.91810117449079,39
39,99795,barra do rio azul,RS,-27.410053253173828,-52.41363652547201,40
40,99790,mariano moro,RS,-27.351151875087197,-52.14494923182896,41
41,99770,aratiba,RS,-27.39387901969578,-52.300792196522586,42
42,99760,itatiba do sul,RS,-27.383730951944987,-52.45613174438476,43
43,99750,erval grande,RS,-27.392643247331893,-52.569085529872346,44
44,99740,barao de cotegipe,RS,-27.616403479325143,-52.38149723253752,45
45,99740,barão de cotegipe,RS,-27.62088203430176,-52.37341562906901,46
46,99735,ponte preta,RS,-27.65757417678833,-52.49106216430664,47
47,99730,jacutinga,RS,-27.728956010606552,-52.536535051133896,48
48,99725,tres arroios,RS,-27.499761962890624,-52.14971237182617,49
49,99725,três arroios,RS,-27.49758720397949,-52.15469741821289,50
50,99720,quatro irmaos,RS,-27.819812138875324,-52.44512430826823,51
51,99718,paulo bento,RS,-28.09665417671204,-52.34450054168701,52
52,99714,erechim,RS,-27.652544657389324,-52.29883416493734,53
53,99713,erechim,RS,-27.641872617933487,-52.29820887247721,54
54,99712,erechim,RS,-27.63828754425049,-52.311553137643,55
55,99711,erechim,RS,-27.6394740809565,-52.28722804525624,56
56,99709,erechim,RS,-27.64977669071507,-52.27326454987397,57
57,99708,erechim,RS,-27.65828567081028,-52.26099756028917,58
58,99706,erechim,RS,-27.65005408393012,-52.24938413831923,59
59,99705,erechim,RS,-27.6413516998291,-52.24053028651646,60
60,99704,erechim,RS,-27.640412823184505,-52.25464822957804,61
61,99702,erechim,RS,-27.62486966451009,-52.24761390686035,62
62,99701,erechim,RS,-27.627115076238457,-52.25863994251598,63
63,99700,erechim,RS,-27.63604572927876,-52.2730490933558,64
64,99690,liberato salzano,RS,-27.600218155804804,-53.07488228293026,65
65,99687,novo xingu,RS,-27.747953414916992,-53.06234995524088,66
66,99680,constantina,RS,-27.73224258422852,-52.99501592462713,67
67,99675,tres palmeiras,RS,-27.614102959632877,-52.84469223022461,68
68,99675,três palmeiras,RS,-27.61418342590332,-52.84377670288086,69
69,99670,ronda alta,RS,-27.78222230764536,-52.80650036151592,70
70,99665,cruzaltense,RS,-27.662394332885743,-52.65655517578125,71
71,99660,campinas do sul,RS,-27.71786634383663,-52.62398221415858,72
72,99655,faxinalzinho,RS,-27.42176818847656,-52.67502085367838,73
73,99650,benjamin constant do sul,RS,-27.51535170418876,-52.59304700578962,74
74,99645,entre rios do sul,RS,-27.531259536743164,-52.73146947224935,75
75,99640,sao valentim,RS,-27.559213365827286,-52.52449771336147,76
76,99640,são valentim,RS,-27.55935859680176,-52.52400970458984,77
77,99615,trindade do sul,RS,-27.52481396993001,-52.89676078160604,78
78,99610,rio dos indios,RS,-27.305193424224854,-52.84202289581299,79
79,99605,gramado dos loureiros,RS,-27.44189516703288,-52.91480000813802,80
80,99600,nonoai,RS,-27.368607393900557,-52.77330652872721,81
81,99590,rondinha,RS,-27.82990784115261,-52.90819549560547,82
82,99585,barra funda,RS,-27.923880259195965,-53.04198328653971,83
83,99580,nova boa vista,RS,-27.992458152771,-52.98095169067383,84
84,99560,sarandi,RS,-27.93904618349942,-52.92636295665394,85
85,99530,chapada,RS,-28.06100170786788,-53.06614889749667,86
86,99528,coqueiros do sul,RS,-28.118553161621094,-52.78245290120443,87
87,99525,santo antonio do planalto,RS,-28.40026071336534,-52.69416766696506,88
88,99525,santo antônio do planalto,RS,-28.395346641540527,-52.68989562988281,89
89,99523,almirante tamandare do sul,RS,-28.116015593210857,-52.91471481323242,90
90,99523,almirante tamandaré do sul,RS,-28.111053466796875,-52.9173469543457,91
91,99500,carazinho,RS,-28.29124461940077,-52.79025572479748,92
92,99495,lagoa dos tres cantos,RS,-28.56729030609131,-52.85889720916748,93
93,99495,lagoa dos três cantos,RS,-28.57036781311035,-52.8426513671875,94
94,99490,tapera,RS,-28.627901306152346,-52.86988296508789,95
95,99470,nao-me-toque,RS,-28.46127811132693,-52.819332048004746,96
96,99470,não-me-toque,RS,-28.46015077478745,-52.819298912497125,97
97,99460,colorado,RS,-28.521722440366396,-52.99280279654044,98
98,99457,jacuizinho,RS,-29.035853068033852,-53.041768391927086,99
99,99450,selbach,RS,-28.63011611938477,-52.95419189453125,100
100,99440,salto do jacui,RS,-29.08931427001953,-53.21692543029785,101
101,99440,salto do jacuí,RS,-29.09024365743001,-53.20953496297201,102
102,99435,campos borges,RS,-28.88623755318778,-53.00127974010649,103
103,99430,alto alegre,RS,-28.78086439768473,-52.98918596903483,104
104,99400,espumoso,RS,-28.73067049358202,-52.84447512419327,105
105,99380,sao jose do herval,RS,-29.05072784423828,-52.29123153686523,106
106,99380,são josé do herval,RS,-29.045658111572266,-52.2938232421875,107
107,99370,fontoura xavier,RS,-28.98239282461313,-52.35025200477013,108
108,99360,barros cassal,RS,-29.09221717289516,-52.58608545575823,109
109,99350,victor graeff,RS,-28.561833101160385,-52.7398006214815,110
110,99345,tio hugo,RS,-28.576568603515625,-52.59699821472168,111
111,99340,lagoao,RS,-29.22660140991211,-52.77629852294922,112
112,99340,lagoão,RS,-29.223429679870605,-52.7718677520752,113
113,99330,tunas,RS,-29.10311813354492,-52.95687561035156,114
114,99320,ibirapuita,RS,-28.62155556678772,-52.515150705973305,115
115,99320,ibirapuitã,RS,-28.622870763142902,-52.51411120096842,116
116,99315,mormaco,RS,-28.696415185928345,-52.68781900405884,117
117,99315,mormaço,RS,-28.6917106628418,-52.69301300048828,118
118,99300,soledade,RS,-28.82744968638701,-52.50925474407292,119
119,99290,vanini,RS,-28.475478998819987,-51.84442825317383,120
120,99270,sao domingos do sul,RS,-28.5403995513916,-51.87590932846069,121
121,99270,são domingos do sul,RS,-28.53190422058105,-51.88965225219727,122
122,99265,santo antonio do palma,RS,-28.49768447875977,-52.00334548950195,123
123,99265,santo antônio do palma,RS,-28.50026559829712,-52.82023906707764,124
124,99260,casca,RS,-28.565730943784608,-51.97461939382029,125
125,99255,montauri,RS,-28.653381075177872,-52.07586560930525,126
126,99250,serafina correa,RS,-28.712863194573785,-51.93411380728495,127
127,99250,serafina corrêa,RS,-28.712210059165955,-51.93385910987854,128
128,99240,sao valentim do sul,RS,-29.05086231231689,-51.76634407043457,129
129,99240,são valentim do sul,RS,-29.042877197265625,-51.76472473144531,130
130,99220,dois lajeados,RS,-28.983047739664716,-51.83618850708008,131
131,99215,uniao da serra,RS,-28.760060787200928,-52.011054039001465,132
132,99215,união da serra,RS,-28.75428009033203,-52.01395797729492,133
133,99200,guapore,RS,-28.847934970747957,-51.89151684173756,134
134,99200,guaporé,RS,-28.84806158883231,-51.89290749686105,135
135,99190,pontao,RS,-28.061918258666992,-52.67832946777344,136
136,99190,pontão,RS,-28.060669898986816,-52.67573165893555,137
137,99180,mato castelhano,RS,-28.27855491638184,-52.19087028503418,138
138,99175,nicolau vergueiro,RS,-28.53502655029297,-52.46157608032227,139
139,99170,sertao,RS,-27.98316346682035,-52.25878818218525,140
140,99170,sertão,RS,-27.986448287963867,-52.257534572056365,141
141,99165,camargo,RS,-28.589473605155945,-52.20432162284851,142
142,99160,gentil,RS,-28.3612003326416,-52.03970718383789,143
143,99155,vila maria,RS,-28.540258060802117,-52.15823780406605,144
144,99150,marau,RS,-28.445913458292463,-52.20283769928248,145
145,99145,coxilha,RS,-28.1269268989563,-52.29683589935303,146
146,99140,ernestina,RS,-28.50007019042969,-52.56590957641602,147
147,99074,passo fundo,RS,-28.272725377764026,-52.39574589048113,148
148,99072,passo fundo,RS,-28.27090289545994,-52.40609082988664,149
149,99070,passo fundo,RS,-28.26437198497631,-52.39247185035988,150
150,99066,passo fundo,RS,-28.27681541442871,-52.39699363708496,151
151,99064,passo fundo,RS,-28.284903576499534,-52.36721078973068,152
152,99062,passo fundo,RS,-28.27973779950823,-52.38488475254604,153
153,99060,passo fundo,RS,-28.27584457397461,-52.37500788370768,154
154,99054,passo fundo,RS,-28.26062165366279,-52.37556838989258,155
155,99052,passo fundo,RS,-28.23327317604652,-52.37258177537184,156
156,99051,passo fundo,RS,-28.253212169725067,-52.45662276598872,157
157,99050,passo fundo,RS,-28.24410980769566,-52.38771242414202,158
158,99043,passo fundo,RS,-28.22659683227539,-52.467506408691406,159
159,99042,passo fundo,RS,-28.24112898303617,-52.4376591097924,160
160,99040,passo fundo,RS,-28.249765032813663,-52.4266300201416,161
161,99036,passo fundo,RS,-28.28339261594026,-52.43377138220745,162
162,99034,passo fundo,RS,-28.27132590611776,-52.4527645111084,163
163,99032,passo fundo,RS,-28.261304582868306,-52.44309752328055,164
164,99030,passo fundo,RS,-28.26425992525541,-52.4370649777926,165
165,99025,passo fundo,RS,-28.26463991924397,-52.425420446303285,166
166,99022,passo fundo,RS,-28.24319496154785,-52.41673126220703,167
167,99020,passo fundo,RS,-28.250440098689158,-52.41055955153245,168
168,99010,passo fundo,RS,-28.270752874877164,-52.54089759283983,169
169,99001,passo fundo,RS,-28.23474597930908,-52.42358207702637,170
170,98995,porto xavier,RS,-27.90680209925917,-55.13907354386127,171
171,98985,porto vera cruz,RS,-27.73572254180908,-54.90024757385254,172
172,98980,porto lucena,RS,-27.85593903064728,-55.01651477813721,173
173,98975,campina das missoes,RS,-27.986246163504465,-54.84109322684152,174
174,98975,campina das missões,RS,-27.99164295196533,-54.84018421173096,175
175,98970,candido godoi,RS,-27.949268569946287,-54.751866760253904,176
176,98970,cândido godói,RS,-27.949442672729493,-54.75399475097656,177
177,98960,santo cristo,RS,-27.826264682569,-54.66498490383751,178
178,98958,sao jose do inhacora,RS,-28.120963287353515,-54.04945602416992,179
179,98955,novo machado,RS,-27.561450140816824,-54.50039781842913,180
180,98950,alecrim,RS,-27.658214463127983,-54.766905042860245,181
181,98947,porto maua,RS,-27.57168650627136,-54.66821765899658,182
182,98947,porto mauá,RS,-27.57343355814616,-54.67035675048828,183
183,98940,tuparendi,RS,-27.75049712922838,-54.48986318376329,184
184,98930,tucunduva,RS,-27.658117238213038,-54.43981148214901,185
185,98925,doutor mauricio cardoso,RS,-27.50738387272276,-54.36361562794652,186
186,98925,doutor maurício cardoso,RS,-27.504297733306885,-54.36619853973389,187
187,98920,horizontina,RS,-27.627278056457964,-54.310360456035085,188
188,98919,nova candelaria,RS,-27.609022458394367,-54.11050796508789,189
189,98919,nova candelária,RS,-27.606631596883137,-54.10831578572592,190
190,98918,boa vista do burica,RS,-27.669043765348547,-54.11112145816578,191
191,98918,boa vista do buricá,RS,-27.66711950302124,-54.11116886138916,192
192,98915,independencia,RS,-27.85332989692688,-54.18987727165222,193
193,98915,independência,RS,-27.85381371634347,-54.19181605747768,194
194,98910,tres de maio,RS,-27.776352553532043,-54.23580455780029,195
195,98910,três de maio,RS,-27.7779396458676,-54.23377047087017,196
196,98905,alegria,RS,-27.80837631225586,-54.04533598158095,197
197,98900,santa rosa,RS,-27.86535833170126,-54.47012788122827,198
198,98898,ubiretama,RS,-28.04483127593994,-54.680437088012695,199
199,98895,senador salgado filho,RS,-28.025798525129044,-54.54445212227957,200
200,98870,girua,RS,-28.02957625467269,-54.34965633955158,201
201,98870,giruá,RS,-28.0306556224823,-54.35190677642822,202
202,98865,sao miguel das missoes,RS,-28.568461957185164,-54.548654805059016,203
203,98865,são miguel das missões,RS,-28.586166381835938,-54.53736368815104,204
204,98860,eugenio de castro,RS,-28.527589162190758,-54.1459592183431,205
205,98855,entre-ijuis,RS,-28.36449041366577,-54.26784572601319,206
206,98855,entre-ijuís,RS,-28.360469818115234,-54.27068201700846,207
207,98850,vitoria das missoes,RS,-28.349778856549943,-54.50110680716379,208
208,98850,vitória das missões,RS,-28.370662689208984,-54.50237274169922,209
209,98825,buriti,RS,-28.29677963256836,-54.39350128173828,210
210,98807,santo angelo,RS,-28.29975599712796,-54.24419572618272,211
211,98807,santo ângelo,RS,-28.301393890380854,-54.24249496459961,212
212,98805,santo angelo,RS,-28.298714955647785,-54.24578666687012,213
213,98805,santo ângelo,RS,-28.293063163757324,-54.24221420288086,214
214,98804,santo angelo,RS,-28.312152278666595,-54.26112793902961,215
215,98804,santo ângelo,RS,-28.310900052388508,-54.262224197387695,216
216,98803,santo angelo,RS,-28.29047442497091,-54.26242418492094,217
217,98803,santo ângelo,RS,-28.29107747759138,-54.26309558323452,218
218,98802,santo angelo,RS,-28.290095044420912,-54.26972703809862,219
219,98802,santo ângelo,RS,-28.290658235549927,-54.272725105285645,220
220,98801,santo angelo,RS,-28.30479439724697,-54.26519284623392,221
221,98801,santo ângelo,RS,-28.30541017320421,-54.26293606228299,222
222,98796,santa rosa,RS,-27.87440465291341,-54.49535013834635,223
223,98794,santa rosa,RS,-27.88288307189941,-54.48157628377279,224
224,98792,santa rosa,RS,-27.87998809814453,-54.4715576171875,225
225,98790,santa rosa,RS,-27.85617991856166,-54.44446127755301,226
226,98789,santa rosa,RS,-27.865418876089706,-54.43682684549472,227
227,98787,santa rosa,RS,-27.896901019783908,-54.40188350233921,228
228,98785,santa rosa,RS,-27.8512061436971,-54.47497698465983,229
229,98781,santa rosa,RS,-27.85965147472563,-54.48871521722703,230
230,98780,santa rosa,RS,-28.057902826679697,-54.39263015856846,231
231,98770,catuipe,RS,-28.25233108520508,-54.01363922119141,232
232,98770,catuípe,RS,-28.25514411926269,-54.01213582356771,233
233,98765,inhacora,RS,-27.882119750976564,-54.01768035888672,234
234,98765,inhacorá,RS,-27.880850791931152,-54.01857376098633,235
235,98760,chiapetta,RS,-27.91880307878767,-53.940580640520366,236
236,98758,nova ramada,RS,-28.084143829345702,-53.7015022277832,237
237,98750,ajuricaba,RS,-28.23771975590633,-53.76337481767703,238
238,98740,augusto pestana,RS,-28.51518326997757,-53.99414610862732,239
239,98735,coronel barros,RS,-28.394830226898197,-54.06763648986816,240
240,98733,bozano,RS,-28.355767991807724,-53.75072479248047,241
241,98700,ijui,RS,-28.387715226286776,-53.915909080238606,242
242,98700,ijuí,RS,-28.388413900352383,-53.916074408106056,243
243,98690,sao martinho,RS,-27.70936369895935,-53.96347332000733,244
244,98690,são martinho,RS,-27.708938217163087,-53.964839935302734,245
245,98680,tiradentes do sul,RS,-27.39309923272384,-54.08802434017784,246
246,98675,sede nova,RS,-27.635037422180176,-53.948769887288414,247
247,98670,humaita,RS,-27.565156841278075,-53.97041816711426,248
248,98670,humaitá,RS,-27.566801071166992,-53.96675745646159,249
249,98640,crissiumal,RS,-27.497914944054944,-54.09978398736918,250
250,98635,esperanca do sul,RS,-27.35855865478516,-53.99359639485677,251
251,98635,esperança do sul,RS,-27.34352397918701,-54.01309013366699,252
252,98620,padre gonzales,RS,-27.434009552001957,-53.96116638183594,253
253,98600,tres passos,RS,-27.45484796592168,-53.93337168012346,254
254,98600,três passos,RS,-27.45294609069824,-53.93542388916016,255
255,98595,sao valerio do sul,RS,-27.78662109375,-53.936222076416016,256
256,98590,santo augusto,RS,-27.85304800256506,-53.77797035118202,257
257,98580,coronel bicaco,RS,-27.717225074768063,-53.70934260975231,258
258,98575,bom progresso,RS,-27.552576700846355,-53.863258361816406,259
259,98570,campo novo,RS,-27.67704030445644,-53.80714103153774,260
260,98560,braga,RS,-27.616563524518693,-53.740940638950896,261
261,98550,redentora,RS,-27.65146605173747,-53.63921610514323,262
262,98540,miraguai,RS,-27.490657443091983,-53.68630036853609,263
263,98540,miraguaí,RS,-27.499516487121586,-53.68335914611816,264
264,98535,vista gaucha,RS,-27.288578850882395,-53.70131138392857,265
265,98535,vista gaúcha,RS,-27.28923225402832,-53.70061874389648,266
266,98530,barra do guarita,RS,-27.19171714782715,-53.70962047576904,267
267,98528,derrubadas,RS,-27.26511526107788,-53.86353778839111,268
268,98500,tenente portela,RS,-27.371052938349106,-53.75858581767363,269
269,98480,alpestre,RS,-27.25035260518392,-53.03555475870768,270
270,98470,planalto,RS,-27.332168825211063,-53.05885967131584,271
271,98465,ametista do sul,RS,-27.36584648132324,-53.17863677978516,272
272,98460,irai,RS,-27.194898223876955,-53.254661560058594,273
273,98460,iraí,RS,-27.19771893819173,-53.256997426350914,274
274,98450,vicente dutra,RS,-27.167528343200683,-53.40246772766113,275
275,98440,caicara,RS,-27.27184077671596,-53.43987165178572,276
276,98440,caiçara,RS,-27.275169372558597,-53.43242835998535,277
277,98435,pinheirinho do vale,RS,-27.21274121602376,-53.619519551595054,278
278,98430,palmitinho,RS,-27.353301684061687,-53.55804252624512,279
279,98415,vista alegre,RS,-27.369685490926106,-53.49268404642741,280
280,98410,taquarucu do sul,RS,-27.39911133902413,-53.46662957327707,281
281,98410,taquaruçu do sul,RS,-27.400349617004395,-53.46723651885986,282
282,98400,frederico westphalen,RS,-27.35619109363879,-53.395979137743936,283
283,98390,erval seco,RS,-27.551181646493767,-53.50826879648062,284
284,98385,dois irmaos das missoes,RS,-27.65939140319824,-53.53232383728027,285
285,98385,dois irmãos das missões,RS,-27.663419723510746,-53.51715278625488,286
286,98380,seberi,RS,-27.482044813368056,-53.401434834798174,287
287,98370,novo tiradentes,RS,-27.56266098022461,-53.18414497375488,288
288,98368,cristal do sul,RS,-27.455182552337646,-53.24628829956055,289
289,98360,rodeio bonito,RS,-27.47330423501821,-53.17050376305213,290
290,98350,jaboticaba,RS,-27.638214747111004,-53.28036244710287,291
291,98345,pinhal,RS,-27.51247236463759,-53.21450763278537,292
292,98340,cerro grande,RS,-27.60834550857544,-53.16618919372559,293
293,98338,novo barreiro,RS,-27.911773204803467,-53.11483597755432,294
294,98335,boa vista das missoes,RS,-27.66180928548177,-53.3167601691352,295
295,98335,boa vista das missões,RS,-27.660478591918945,-53.31681442260742,296
296,98330,sagrada familia,RS,-27.700011253356934,-53.13446378707886,297
297,98330,sagrada família,RS,-27.70230865478516,-53.13594818115234,298
298,98325,sao jose das missoes,RS,-27.78897857666016,-53.12581253051758,299
299,98325,são josé das missões,RS,-27.778303146362305,-53.120975494384766,300
300,98320,lajeado do bugre,RS,-27.691993713378903,-53.17902755737305,301
301,98300,palmeira das missoes,RS,-27.898465421464707,-53.31153411335416,302
302,98300,palmeira das missões,RS,-27.89888801574707,-53.30866912841797,303
303,98290,condor,RS,-28.207322216033937,-53.48483848571777,304
304,98280,panambi,RS,-28.29354064260717,-53.50223789427803,305
305,98270,pejucara,RS,-28.419334187227136,-53.65419971241671,306
306,98270,pejuçara,RS,-28.41983795166016,-53.65375518798828,307
307,98250,saldanha marinho,RS,-28.39566822052002,-53.08791656494141,308
308,98240,santa barbara do sul,RS,-28.368167699769486,-53.25345301073651,309
309,98240,santa bárbara do sul,RS,-28.366170610700333,-53.2486937386649,310
310,98230,quinze de novembro,RS,-28.743114725748697,-53.09845987955729,311
311,98200,ibiruba,RS,-28.630006511308995,-53.09893247816298,312
312,98200,ibirubá,RS,-28.623932471642128,-53.09941497215858,313
313,98180,joia,RS,-28.65438478643244,-54.11772433194247,314
314,98180,jóia,RS,-28.66944122314453,-54.11805248260498,315
315,98175,jari,RS,-29.28962635993957,-54.21943092346192,316
316,98170,tupancireta,RS,-29.08114392244363,-53.83681449407264,317
317,98170,tupanciretã,RS,-29.082340876261394,-53.83842264811198,318
318,98160,ivora,RS,-29.52049827575684,-53.57789993286133,319
319,98150,pinhal grande,RS,-29.336851755778,-53.34472452799479,320
320,98140,quevedos,RS,-29.348425971137157,-54.073150634765625,321
321,98130,julio de castilhos,RS,-29.231842702229816,-53.67892573038737,322
322,98130,júlio de castilhos,RS,-29.22820472717285,-53.67704064505441,323
323,98125,fortaleza dos valos,RS,-28.79633971183531,-53.22837177399666,324
324,98120,boa vista do incra,RS,-28.818665095738,-53.38681139264788,325
325,98118,boa vista do cadeado,RS,-28.577595138549803,-53.8136589050293,326
326,98050,cruz alta,RS,-28.65422989771916,-53.59954305795523,327
327,98045,cruz alta,RS,-28.676167805989586,-53.61002731323242,328
328,98040,cruz alta,RS,-28.65117037296295,-53.588791608810425,329
329,98035,cruz alta,RS,-28.645112991333008,-53.58606897989909,330
330,98030,cruz alta,RS,-28.63252687454224,-53.58747816085816,331
331,98025,cruz alta,RS,-28.63496378385104,-53.60437897902269,332
332,98020,cruz alta,RS,-28.62409817088734,-53.61205465143377,333
333,98015,cruz alta,RS,-28.63363994251598,-53.62182114341042,334
334,98010,cruz alta,RS,-28.65005165675901,-53.61643470908111,335
335,98005,cruz alta,RS,-28.643106110890702,-53.607387193044026,336
336,97980,sao paulo das missoes,RS,-28.02159209873365,-54.93840458082117,337
337,97980,são paulo das missões,RS,-28.020580291748047,-54.93383407592773,338
338,97970,roque gonzales,RS,-28.130287772730775,-55.02161246851871,339
339,97960,sete de setembro,RS,-28.1286678314209,-54.459102630615234,340
340,97950,guarani das missoes,RS,-28.143820793397964,-54.55900167649792,341
341,97950,guarani das missões,RS,-28.143067836761475,-54.55624675750733,342
342,97940,salvador das missoes,RS,-28.10692615509033,-54.84205665588379,343
343,97940,salvador das missões,RS,-28.11945915222168,-54.83611679077149,344
344,97935,mato queimado,RS,-28.254847908020015,-54.61805038452148,345
345,97930,caibate,RS,-28.28976751256872,-54.63981430618851,346
346,97930,caibaté,RS,-28.292346318562824,-54.64068349202474,347
347,97920,sao pedro do butia,RS,-28.124785804748534,-54.893799209594725,348
348,97920,são pedro do butiá,RS,-28.123973210652668,-54.89218393961588,349
349,97900,cerro largo,RS,-28.14663822776393,-54.7378916288677,350
350,97885,pirapo,RS,-28.04681282043457,-55.20003890991211,351
351,97885,pirapó,RS,-28.04579861958821,-55.19972229003906,352
352,97880,sao nicolau,RS,-28.18492041693793,-55.25989956325955,353
353,97880,são nicolau,RS,-28.18546485900879,-55.268436431884766,354
354,97870,santo antonio das missoes,RS,-28.50758141279221,-55.23282122612,355
355,97870,santo antônio das missões,RS,-28.50871238708496,-55.22377471923828,356
356,97850,bossoroca,RS,-28.72727062391198,-54.91078899217688,357
357,97845,dezesseis de novembro,RS,-28.2247371673584,-55.0505313873291,358
358,97843,rolador,RS,-28.262630462646484,-54.828372955322266,359
359,97800,sao luiz gonzaga,RS,-28.40549207020955,-54.9577063594956,360
360,97800,são luiz gonzaga,RS,-28.40698012183694,-54.95570171580595,361
361,97770,nova esperanca do sul,RS,-29.42278259277344,-54.91887542724609,362
362,97770,nova esperança do sul,RS,-29.408473014831543,-54.82675266265869,363
363,97760,jaguari,RS,-29.496141003024192,-54.68679754195675,364
364,97755,unistalda,RS,-29.047378063201904,-55.15308380126953,365
365,97753,capao do cipo,RS,-28.94596028327942,-54.56428718566895,366
366,97753,capão do cipó,RS,-28.923561096191406,-54.555625915527344,367
367,97700,santiago,RS,-29.186543631863284,-54.8675161089216,368
368,97690,garruchos,RS,-28.18556022644043,-55.63986206054688,369
369,97685,itacurubi,RS,-28.79777956008911,-55.23500442504883,370
370,97670,sao borja,RS,-28.654803440725203,-56.00481871735278,371
371,97670,são borja,RS,-28.651555793229925,-56.00943410119345,372
372,97650,itaqui,RS,-29.13268604017284,-56.55202554676631,373
373,97645,macambara,RS,-29.148001776801216,-56.06668133205838,374
374,97645,maçambará,RS,-29.14683659871419,-56.06447982788086,375
375,97640,manoel viana,RS,-29.573581108680138,-55.483822895930366,376
376,97610,sao francisco de assis,RS,-29.551627308130264,-55.12663346529007,377
377,97610,são francisco de assis,RS,-29.54779786330003,-55.12705465463492,378
378,97590,rosario do sul,RS,-30.25522514677396,-54.91959364396812,379
379,97590,rosário do sul,RS,-30.253172180869363,-54.92494600469416,380
380,97578,sant'ana do livramento,RS,-30.88883781433105,-55.490211486816406,381
381,97578,santana do livramento,RS,-30.866963598463272,-55.48427051968045,382
382,97577,santana do livramento,RS,-30.876862314012318,-55.51219622294108,383
383,97576,santana do livramento,RS,-30.88943977355957,-55.51061325073242,384
384,97575,santana do livramento,RS,-30.895075302124024,-55.49494216918945,385
385,97574,santana do livramento,RS,-30.89510437537884,-55.52544639850485,386
386,97573,sant'ana do livramento,RS,-30.88027572631836,-55.54181289672852,387
387,97573,santana do livramento,RS,-30.88783241927258,-55.53713979896592,388
388,97572,santana do livramento,RS,-30.874211438496907,-55.53156522115072,389
389,97571,santana do livramento,RS,-30.86167456886985,-55.54659479314631,390
390,97560,quarai,RS,-30.38348638689196,-56.45254351641681,391
391,97560,quaraí,RS,-30.38269897743508,-56.44999341611509,392
392,97547,alegrete,RS,-29.800607854669742,-55.75366719563802,393
393,97546,alegrete,RS,-29.791343946714655,-55.76808785103463,394
394,97545,alegrete,RS,-29.804309689268774,-55.80474168427136,395
395,97544,alegrete,RS,-29.791737132602268,-55.80695215861002,396
396,97543,alegrete,RS,-29.796548981597457,-55.803998090218805,397
397,97542,alegrete,RS,-29.78443380882,-55.792193971831225,398
398,97541,alegrete,RS,-29.780723238748216,-55.79044626629542,399
399,97538,barra do quarai,RS,-30.20846271514893,-57.55079650878906,400
400,97538,barrado quarai,RS,-30.2085018157959,-57.55158615112305,401
401,97538,barra do quaraí,RS,-30.208712577819824,-57.55076313018799,402
402,97513,uruguaiana,RS,-29.76912637190385,-57.05636804754084,403
403,97511,uruguaiana,RS,-29.767654788109564,-57.06017069662771,404
404,97510,uruguaiana,RS,-29.762835415926848,-57.08199761130593,405
405,97509,uruguaiana,RS,-29.831370626177108,-57.02812603541783,406
406,97508,uruguaiana,RS,-29.788461685180664,-57.08943939208984,407
407,97507,uruguaiana,RS,-29.775954534841137,-57.07674940242324,408
408,97504,uruguaiana,RS,-29.779726876152885,-57.09184477064345,409
409,97503,uruguaiana,RS,-29.77366317892974,-57.09614102345593,410
410,97502,uruguaiana,RS,-29.762249209217188,-57.07895233704872,411
411,97501,uruguaiana,RS,-29.75577852397622,-57.08813766662232,412
412,97500,uruguaiana,RS,-29.76885223388672,-57.08631820678711,413
413,97450,cacequi,RS,-29.883498411912186,-54.82633077181303,414
414,97420,sao vicente do sul,RS,-29.692410376764112,-54.68254766156596,415
415,97420,são vicente do sul,RS,-29.694679737091064,-54.67626142501831,416
416,97418,toropi,RS,-29.47145789010184,-54.227555411202566,417
417,97410,mata,RS,-29.56152892112732,-54.45662689208984,418
418,97400,sao pedro do sul,RS,-29.535610569847957,-54.22075663672553,419
419,97400,são pedro do sul,RS,-29.61679250543768,-54.18006411465731,420
420,97390,lavras do sul,RS,-30.81111376626151,-53.900742530822754,421
421,97385,vila nova do sul,RS,-30.204742951826617,-53.340951746160336,422
422,97340,sao sepe,RS,-30.164370665679108,-53.57076418077624,423
423,97340,são sepé,RS,-30.168149403163365,-53.56823321751186,424
424,97335,santa margarida do sul,RS,-30.38574981689453,-54.07665252685547,425
425,97314,sao gabriel,RS,-30.3209228515625,-54.31201171875,426
426,97314,são gabriel,RS,-30.32228279113769,-54.31594657897949,427
427,97313,sao gabriel,RS,-30.33159065246582,-54.32929229736328,428
428,97313,são gabriel,RS,-30.32395362854004,-54.323001861572266,429
429,97310,sao gabriel,RS,-30.335274696350098,-54.32938957214356,430
430,97310,são gabriel,RS,-30.333049456278484,-54.33522415161133,431
431,97306,são gabriel,RS,-30.354835510253903,-54.33416557312012,432
432,97300,sao gabriel,RS,-30.33646731193249,-54.32303071022034,433
433,97300,são gabriel,RS,-30.336230278015137,-54.32746965744917,434
434,97280,dona francisca,RS,-29.623889287312824,-53.35653839111328,435
435,97250,nova palma,RS,-29.468576330887643,-53.45869405646073,436
436,97230,sao joao do polesine,RS,-29.620813196355645,-53.4505861455744,437
437,97220,faxinal do soturno,RS,-29.5752379099528,-53.445063802931045,438
438,97210,formigueiro,RS,-29.999230112348283,-53.500549588884624,439
439,97200,restinga seca,RS,-29.81297298099684,-53.3756452643353,440
440,97195,silveira martins,RS,-29.645316696166997,-53.58382492065429,441
441,97190,sao martinho da serra,RS,-29.5389404296875,-53.8545150756836,442
442,97190,são martinho da serra,RS,-29.54255104064941,-53.856048583984375,443
443,97185,itaara,RS,-29.5968017578125,-53.76801123985877,444
444,97180,dilermando de aguiar,RS,-29.706328868865967,-54.204895973205566,445
445,97110,santa maria,RS,-29.699988479134426,-53.732680026840114,446
446,97105,santa maria,RS,-29.706864735436817,-53.71802541944716,447
447,97095,santa maria,RS,-29.696453635757035,-53.77163087999499,448
448,97090,santa maria,RS,-29.675720962823608,-53.79063871795056,449
449,97070,santa maria,RS,-29.715975088231705,-53.81566432878083,450
450,97065,santa maria,RS,-29.72097181662535,-53.80030656472231,451
451,97060,santa maria,RS,-29.703291190598534,-53.80084664807348,452
452,97050,santa maria,RS,-29.68943658969745,-53.79833265965087,453
453,97045,santa maria,RS,-29.67415781374331,-53.803200050636576,454
454,97043,santa maria,RS,-29.67381858825684,-53.81839815775553,455
455,97040,santa maria,RS,-29.673679447174077,-53.832057571411134,456
456,97037,santa maria,RS,-29.683031418744257,-53.85465756584616,457
457,97035,santa maria,RS,-29.69285160411488,-53.85109183571556,458
458,97032,santa maria,RS,-29.69879993862576,-53.873510403103296,459
459,97030,santa maria,RS,-29.706698876160843,-53.87216413938082,460
460,97021,santa maria,RS,-29.695897420247395,-53.8323491414388,461
461,97020,santa maria,RS,-29.692473729451496,-53.82594018694999,462
462,97015,santa maria,RS,-29.69257699487044,-53.81234235304562,463
463,97010,santa maria,RS,-29.684348961271613,-53.81380339542708,464
464,96990,estrela velha,RS,-29.18289702279227,-53.15935216631208,465
465,96950,arroio do tigre,RS,-29.333450211419,-52.99505191379123,466
466,96930,candelaria,RS,-29.66968266375653,-52.78900002813958,467
467,96930,candelária,RS,-29.675343990325928,-52.78987789154053,468
468,96925,ibarama,RS,-29.422294192843967,-53.127346462673614,469
469,96920,lagoa bonita do sul,RS,-29.496606826782227,-53.03589630126953,470
470,96910,segredo,RS,-29.334054470062256,-52.97154235839844,471
471,96908,passa sete,RS,-29.441043535868328,-52.95781644185384,472
472,96900,sobradinho,RS,-29.41678362044077,-53.026586441766646,473
473,96890,sinimbu,RS,-29.53050142923991,-52.52211481730144,474
474,96888,herveiras,RS,-29.455768966674803,-52.64869079589844,475
475,96880,vera cruz,RS,-29.716184782981877,-52.50603861808777,476
476,96878,vale do sol,RS,-29.60719854181463,-52.68086277354848,477
477,96875,gramado xavier,RS,-29.269470930099487,-52.57833957672119,478
478,96859,monte alverne,RS,-29.55944061279297,-52.334720611572266,479
479,96859,santa cruz do sul,RS,-29.70724105834961,-52.44425201416016,480
480,96845,santa cruz do sul,RS,-29.7248304440425,-52.4428464449369,481
481,96843,santa cruz do sul,RS,-29.73859138488769,-52.44477996826172,482
482,96842,santa cruz do sul,RS,-29.765459060668945,-52.440565745035805,483
483,96840,santa cruz do sul,RS,-29.741614712609184,-52.43309338887533,484
484,96836,santa cruz do sul,RS,-29.762518882751465,-52.41559600830078,485
485,96835,santa cruz do sul,RS,-29.750792948404943,-52.4216651280721,486
486,96832,santa cruz do sul,RS,-29.7490909576416,-52.40973587036133,487
487,96830,santa cruz do sul,RS,-29.735854890611435,-52.41724466394495,488
488,96825,santa cruz do sul,RS,-29.717795978892934,-52.41850393468683,489
489,96824,santa cruz do sul,RS,-29.70449471473694,-52.39981031417847,490
490,96823,santa cruz do sul,RS,-29.69303631782532,-52.41242504119873,491
491,96822,santa cruz do sul,RS,-29.67669889662001,-52.400549994574654,492
492,96821,santa cruz do sul,RS,-29.679482650756835,-52.40952987670899,493
493,96820,santa cruz do sul,RS,-29.704350361071132,-52.42556658293071,494
494,96817,santa cruz do sul,RS,-29.68819999694824,-52.448509216308594,495
495,96816,santa cruz do sul,RS,-29.694897492726643,-52.442508697509766,496
496,96815,santa cruz do sul,RS,-29.70360565185547,-52.42254811241513,497
497,96814,santa cruz do sul,RS,-29.71387799580892,-52.444844563802086,498
498,96810,santa cruz do sul,RS,-29.717245418501097,-52.43078325200378,499
499,96790,barra do ribeiro,RS,-30.29829372678484,-51.308983257838655,500
500,96770,cerro grande do sul,RS,-30.59508768717448,-51.75234533239294,501
501,96765,sentinela do sul,RS,-30.616267204284668,-51.58069324493408,502
502,96760,tapes,RS,-30.67407281937138,-51.39790565736832,503
503,96755,minas do leao,RS,-30.139423630454324,-52.04554419084029,504
504,96755,minas do leão,RS,-30.14020538330078,-52.04002380371094,505
505,96750,butia,RS,-30.11954703050501,-51.96147520401899,506
506,96750,butiá,RS,-30.121370569864908,-51.96737391153972,507
507,96745,charqueadas,RS,-29.96270529429118,-51.61864260131237,508
508,96740,arroio dos ratos,RS,-30.08992071885329,-51.731524716890775,509
509,96735,barao do triunfo,RS,-30.38981056213379,-51.73751735687256,510
510,96735,barão do triunfo,RS,-30.43020820617676,-51.78409576416016,511
511,96700,sao jeronimo,RS,-29.963369578531346,-51.71846180746,512
512,96700,são jerônimo,RS,-29.962670135498048,-51.72990951538086,513
513,96690,pantano grande,RS,-30.194902604626076,-52.36664076774351,514
514,96690,pântano grande,RS,-30.19182014465332,-52.37144660949707,515
515,96685,passo do sobrado,RS,-29.751166979471844,-52.27277946472168,516
516,96640,rio pardo,RS,-29.97984299432664,-52.37472748529344,517
517,96635,amaral ferrador,RS,-30.874238967895508,-52.25319290161133,518
518,96610,encruzilhada do sul,RS,-30.544711207295517,-52.523721548227165,519
519,96600,cangucu,RS,-31.395019082462085,-52.67732122832653,520
520,96600,canguçu,RS,-31.3995441198349,-52.67556619644165,521
521,96590,santana da boa vista,RS,-30.87311437394884,-53.11448351542155,522
522,96570,cacapava do sul,RS,-30.514470914999645,-53.48837681611379,523
523,96570,caçapava do sul,RS,-30.51147903714861,-53.49206352233887,524
524,96550,cortado,RS,-29.73716926574707,-52.95064163208008,525
525,96545,novo cabrais,RS,-29.737354278564453,-52.95390701293945,526
526,96540,agudo,RS,-29.64327365473697,-53.245925300999694,527
527,96535,cerro branco,RS,-29.665982564290363,-52.94461949666341,528
528,96530,paraiso do sul,RS,-29.72596539391412,-53.18077362908257,529
529,96530,paraíso do sul,RS,-29.714070320129395,-53.17204475402832,530
530,96508,cachoeira do sul,RS,-30.04632930097909,-52.89077364165208,531
531,96506,cachoeira do sul,RS,-30.04166823341733,-52.89549373445057,532
532,96505,cachoeira do sul,RS,-30.011027671195365,-52.9033815538561,533
533,96504,cachoeira do sul,RS,-30.00550842285156,-52.91880798339844,534
534,96503,cachoeira do sul,RS,-30.023143532835405,-52.91233236995744,535
535,96501,cachoeira do sul,RS,-30.03434181213379,-52.90099496841431,536
536,96495,candiota,RS,-31.501509226285496,-53.69073919149545,537
537,96490,piratini,RS,-31.43782364238392,-53.10346620733088,538
538,96487,pedras altas,RS,-31.733567343817818,-53.58633295694987,539
539,96470,pinheiro machado,RS,-31.578575070699056,-53.382461357116696,540
540,96460,hulha negra,RS,-31.401705741882324,-53.876362323760986,541
541,96450,dom pedrito,RS,-30.979123277484245,-54.66997672027012,542
542,96445,acegua,RS,-31.774987030029298,-54.15690638224284,543
543,96445,aceguá,RS,-31.724509716033936,-54.11720561981201,544
544,96439,colonia nova,RS,-31.666940689086918,-54.070831298828125,545
545,96439,colônia nova,RS,-31.666940689086918,-54.070831298828125,546
546,96425,bage,RS,-31.34164989695829,-54.11934796501608,547
547,96425,bagé,RS,-31.34427719116211,-54.12717056274414,548
548,96422,bage,RS,-31.359242757161457,-54.11105219523112,549
549,96422,bagé,RS,-31.35884475708008,-54.1148796081543,550
550,96420,bage,RS,-31.353203455607098,-54.09213892618815,551
551,96420,bagé,RS,-31.343839645385746,-54.09561538696289,552
552,96419,bage,RS,-31.33502578735352,-54.06422424316406,553
553,96418,bage,RS,-31.338718934492636,-54.07858709855513,554
554,96418,bagé,RS,-31.33903789520264,-54.07654571533203,555
555,96415,bage,RS,-31.3330679806796,-54.09015655517578,556
556,96415,bagé,RS,-31.33149422539605,-54.08938725789388,557
557,96413,bage,RS,-31.30824244022369,-54.07740688323975,558
558,96413,bagé,RS,-31.306721051534016,-54.07107925415039,559
559,96412,bage,RS,-31.317843996245287,-54.0917679359173,560
560,96412,bagé,RS,-31.31689325968425,-54.09116617838541,561
561,96410,bage,RS,-31.29517269134521,-54.133169174194336,562
562,96408,bage,RS,-31.30813001549762,-54.11151189389436,563
563,96408,bagé,RS,-31.30940341949463,-54.11245854695638,564
564,96407,bage,RS,-31.310989125569662,-54.11833521525065,565
565,96407,bagé,RS,-31.31297492980957,-54.114559173583984,566
566,96405,bage,RS,-31.30880654376486,-54.1294698300569,567
567,96405,bagé,RS,-31.310306787490845,-54.12955856323242,568
568,96402,bage,RS,-31.329072865572844,-54.12235554781827,569
569,96402,bagé,RS,-31.33017883300781,-54.11898345947266,570
570,96400,bage,RS,-31.32721321371071,-54.10673506747802,571
571,96400,bagé,RS,-31.327549362182616,-54.10497520446777,572
572,96395,cerrito,RS,-31.85146001180013,-52.80916519165039,573
573,96360,pedro osorio,RS,-31.86684095859528,-52.821266174316406,574
574,96360,pedro osório,RS,-31.866573333740234,-52.82402102152506,575
575,96330,arroio grande,RS,-32.23566065894233,-53.07885138193766,576
576,96310,herval,RS,-32.02486246282404,-53.39286018140388,577
577,96300,jaguarao,RS,-32.56117638876272,-53.378168239149936,578
578,96300,jaguarão,RS,-32.56061782836914,-53.37791268484933,579
579,96290,tavares,RS,-31.284256421602688,-51.08718006427471,580
580,96270,mostardas,RS,-31.10296100681111,-50.91340753587626,581
581,96255,chui,RS,-33.69024640863592,-53.46160689267245,582
582,96255,chuí,RS,-33.689129114151,-53.45626759529114,583
583,96230,santa vitoria do palmar,RS,-33.51227920994614,-53.34978316335967,584
584,96230,santa vitória do palmar,RS,-33.51591929267435,-53.349576725679285,585
585,96225,sao jose do norte,RS,-31.957294078583413,-52.00674548047654,586
586,96225,são josé do norte,RS,-31.992804565429687,-52.00851852416992,587
587,96223,rio grande,RS,-32.02579879760742,-52.19684982299805,588
588,96222,quinta,RS,-32.109580993652344,-52.34591674804688,589
589,96222,rio grande,RS,-32.07970591953823,-52.21609687805176,590
590,96217,rio grande,RS,-32.16005516052246,-52.18073685963949,591
591,96216,rio grande,RS,-32.105256812517034,-52.17395578428757,592
592,96215,rio grande,RS,-32.09470228048471,-52.18358920170711,593
593,96214,rio grande,RS,-32.07980579283179,-52.17938009122523,594
594,96213,rio grande,RS,-32.07667501349198,-52.170520180150085,595
595,96212,rio grande,RS,-32.05253555405308,-52.14216245731837,596
596,96211,rio grande,RS,-32.04029043097245,-52.1162321621314,597
597,96210,rio grande,RS,-32.194867028130425,-52.17540041605631,598
598,96209,rio grande,RS,-32.195803833007815,-52.18003311157226,599
599,96208,rio grande,RS,-32.18617296218872,-52.17167218526205,600
600,96207,rio grande,RS,-32.184118097478695,-52.15620110251687,601
601,96206,rio grande,RS,-32.17620547064419,-52.161789466594826,602
602,96205,rio grande,RS,-32.177483204432896,-52.16439552307129,603
603,96204,rio grande,RS,-32.137831687927246,-52.10905170440674,604
604,96203,rio grande,RS,-32.079231305555865,-52.15603308244185,605
605,96202,rio grande,RS,-32.048541413413155,-52.11291156874763,606
606,96201,rio grande,RS,-32.03821976330816,-52.08482520434321,607
607,96200,rio grande,RS,-32.03464706868225,-52.09720156790768,608
608,96195,cristal,RS,-31.00129474293102,-52.04800640452992,609
609,96193,chuvisca,RS,-30.74918899536133,-51.98089828491211,610
610,96190,dom feliciano,RS,-30.703912523057724,-52.108021630181206,611
611,96180,camaqua,RS,-30.853336780225455,-51.80821362775357,612
612,96180,camaquã,RS,-30.857715940475465,-51.81015043258667,613
613,96178,arambare,RS,-30.912908380681817,-51.501952084628016,614
614,96178,arambaré,RS,-30.907751083374023,-51.49942588806152,615
615,96170,sao lourenco do sul,RS,-31.36527854855321,-51.97759349406267,616
616,96170,são lourenço do sul,RS,-31.36102836362777,-51.98269271850586,617
617,96160,capao do leao,RS,-31.76772099620891,-52.46321552204636,618
618,96160,capão do leão,RS,-31.762761969315378,-52.45598622372276,619
619,96155,arroio do padre,RS,-31.441524505615234,-52.418243408203125,620
620,96150,morro redondo,RS,-31.592241048812863,-52.62434959411621,621
621,96148,turucu,RS,-31.41357676188151,-52.17143249511719,622
622,96148,turuçu,RS,-31.41513061523437,-52.172119140625,623
623,96145,quilombo,RS,-31.51223564147949,-52.43996047973633,624
624,96130,colonia z-3,RS,-31.698060989379883,-52.15608215332031,625
625,96130,colônia z-3,RS,-31.698244094848636,-52.15610885620117,626
626,96115,monte bonito,RS,-31.63880729675293,-52.41553497314453,627
627,96100,santa vitoria do palmar,RS,-33.52579879760742,-53.36455154418945,628
628,96095,pelotas,RS,-31.73462540762765,-52.21480369567871,629
629,96090,pelotas,RS,-31.75992150987897,-52.23554126194545,630
630,96087,pelotas,RS,-31.71971473693848,-52.30552291870117,631
631,96085,pelotas,RS,-31.750595321655272,-52.30625564575195,632
632,96083,pelotas,RS,-31.758884370327,-52.27200448513031,633
633,96081,pelotas,RS,-31.73830692584698,-52.31413092980018,634
634,96080,pelotas,RS,-31.751071751117703,-52.32320165634155,635
635,96077,pelotas,RS,-31.757102638483047,-52.317666590213776,636
636,96076,pelotas,RS,-31.7654822956432,-52.32048416137695,637
637,96075,pelotas,RS,-31.76834131542005,-52.32696849421451,638
638,96072,pelotas,RS,-31.65198343450373,-52.33256912231445,639
639,96071,pelotas,RS,-31.701542581830704,-52.314749581473215,640
640,96070,pelotas,RS,-31.697254213793524,-52.339119089060816,641
641,96065,pelotas,RS,-31.719759698641504,-52.35233934046858,642
642,96060,pelotas,RS,-31.72604051003089,-52.3228739958543,643
643,96055,pelotas,RS,-31.737640539805096,-52.33684508005778,644
644,96050,pelotas,RS,-31.74029289245605,-52.39211715698242,645
645,96045,pelotas,RS,-31.74813477889351,-52.390928019648015,646
646,96040,pelotas,RS,-31.74920671164584,-52.374663294578085,647
647,96030,pelotas,RS,-31.760565268687717,-52.370996377406975,648
648,96025,pelotas,RS,-31.77142514680561,-52.35582060562937,649
649,96020,pelotas,RS,-31.75549649047852,-52.34127166748047,650
650,96015,pelotas,RS,-31.76267954167104,-52.33833548526636,651
651,96010,pelotas,RS,-31.772332894600044,-52.33919531612073,652
652,95997,itapuca,RS,-28.780920028686523,-52.17247772216797,653
653,95997,itapucá,RS,-28.784353256225582,-52.17252731323242,654
654,95995,arvorezinha,RS,-28.87190538294175,-52.18011152978037,655
655,95990,ilopolis,RS,-28.92799039320512,-52.12669060446999,656
656,95990,ilópolis,RS,-28.92729759216309,-52.12616958618164,657
657,95985,nova alvorada,RS,-28.67701520417866,-52.16486940885845,658
658,95980,anta gorda,RS,-28.97209914954933,-52.00750423122097,659
659,95975,putinga,RS,-29.0013822667739,-52.15717001522289,660
660,95972,vespasiano correa,RS,-29.06861534118652,-51.86119155883789,661
661,95970,mucum,RS,-29.164842345497824,-51.87248212640936,662
662,95970,muçum,RS,-29.16775185721261,-51.874572208949495,663
663,95967,doutor ricardo,RS,-29.09118537902832,-51.98663558959961,664
664,95965,relvado,RS,-29.11208915710449,-52.07063941955566,665
665,95960,encantado,RS,-29.23610495053805,-51.87518466069148,666
666,95955,coqueiro baixo,RS,-29.180480003356934,-52.0893440246582,667
667,95950,nova brescia,RS,-29.214954662323,-52.02547702789307,668
668,95950,nova bréscia,RS,-29.214136123657227,-52.02652263641357,669
669,95948,travesseiro,RS,-29.3116397857666,-52.06285730997721,670
670,95945,pouso novo,RS,-29.157172679901123,-52.22293472290039,671
671,95940,arroio do meio,RS,-29.394875811547347,-51.94517112024052,672
672,95937,forquetinha,RS,-29.37550036112468,-52.11097081502279,673
673,95935,capitao,RS,-29.27024483680725,-51.98852491378784,674
674,95935,capitão,RS,-29.27137056986491,-51.98785909016927,675
675,95933,canudos do vale,RS,-29.323591232299805,-52.23394775390625,676
676,95930,cruzeiro do sul,RS,-29.51229631333124,-51.9922007606143,677
677,95925,progresso,RS,-29.24130750957288,-52.31881954795436,678
678,95923,marques de souza,RS,-29.319898223876955,-52.10171546936035,679
679,95920,boqueirao do leao,RS,-29.302864681590687,-52.42991482127797,680
680,95920,boqueirão do leão,RS,-29.30005788803101,-52.428786277771,681
681,95918,serio,RS,-29.38354587554932,-52.271684646606445,682
682,95918,sério,RS,-29.38686752319336,-52.26798248291016,683
683,95915,santa clara do sul,RS,-29.467469787597658,-52.08774917602539,684
684,95914,lajeado,RS,-29.43873640207144,-51.95644945976062,685
685,95913,lajeado,RS,-29.446579933166504,-51.96120206047507,686
686,95912,lajeado,RS,-29.437289873758957,-51.97361596425375,687
687,95911,lajeado,RS,-29.424732208251957,-52.00566482543945,688
688,95910,lajeado,RS,-29.430823692908653,-51.99377676156851,689
689,95908,lajeado,RS,-29.432085037231445,-52.02006912231445,690
690,95907,lajeado,RS,-29.432056045532228,-52.04829406738281,691
691,95906,lajeado,RS,-29.43626530965169,-52.02586110432943,692
692,95905,lajeado,RS,-29.449883001822013,-51.98775708233869,693
693,95904,lajeado,RS,-29.458075523376465,-51.996368408203125,694
694,95903,lajeado,RS,-29.46012278965541,-52.0226320539202,695
695,95902,lajeado,RS,-29.478158950805664,-51.97911834716797,696
696,95901,lajeado,RS,-29.472561029287483,-51.98568402803861,697
697,95900,lajeado,RS,-29.46055673610019,-51.966717111188814,698
698,95895,colinas,RS,-29.38825416564941,-51.86899185180664,699
699,95893,westfalia,RS,-29.42319750785828,-51.76297283172608,700
700,95893,westfália,RS,-29.417945861816406,-51.76629257202149,701
701,95890,teutonia,RS,-29.481360876738137,-51.80827160735628,702
702,95890,teutônia,RS,-29.48026938187449,-51.80747503983347,703
703,95885,imigrante,RS,-29.345230449329723,-51.76658682389693,704
704,95880,estrela,RS,-29.49765894148085,-51.95838423834907,705
705,95875,fazenda vilanova,RS,-29.58577990531921,-51.82906150817871,706
706,95870,bom retiro do sul,RS,-29.60072374343872,-51.93419710795085,707
707,95865,paverama,RS,-29.553835074106853,-51.74164740244547,708
708,95863,tabai,RS,-29.687450408935547,-51.71994400024414,709
709,95860,taquari,RS,-29.7926115501584,-51.86124954824373,710
710,95840,triunfo,RS,-29.930632652774936,-51.70738490935295,711
711,95835,mato leitao,RS,-29.52562522888184,-52.12687072753906,712
712,95835,mato leitão,RS,-29.52304077148437,-52.13123512268066,713
713,95833,vale verde,RS,-29.78256607055664,-52.18555196126302,714
714,95820,general camara,RS,-29.91010151738706,-51.76924547941788,715
715,95820,general câmara,RS,-29.896923828125,-51.78576889038086,716
716,95800,venancio aires,RS,-29.610956896268405,-52.19395141601562,717
717,95800,venâncio aires,RS,-29.61194382773505,-52.18985843658447,718
718,95795,sao vendelino,RS,-29.37426053560697,-51.37238311767578,719
719,95795,são vendelino,RS,-29.36821174621582,-51.37857437133789,720
720,95793,marata,RS,-29.54857349395752,-51.55913162231445,721
721,95790,brochier,RS,-29.55986352400346,-51.59097186001864,722
722,95785,harmonia,RS,-29.550237125820583,-51.42136234707303,723
723,95783,pareci novo,RS,-29.63739643096924,-51.40402755737305,724
724,95780,montenegro,RS,-29.68780427423704,-51.46796400064058,725
725,95778,vale real,RS,-29.390307467916735,-51.24721178801163,726
726,95775,tupandi,RS,-29.4854679107666,-51.417270783455145,727
727,95773,alto feliz,RS,-29.39521789550781,-51.30995886666434,728
728,95770,feliz,RS,-29.45270456293578,-51.30223296790994,729
729,95768,linha nova,RS,-29.46218705177307,-51.20163869857788,730
730,95765,bom principio,RS,-29.4799919128418,-51.35920640898914,731
731,95765,bom princípio,RS,-29.486434512668183,-51.35946612887912,732
732,95760,sao sebastiao do cai,RS,-29.58711382548014,-51.361812337239584,733
733,95760,são sebastião do caí,RS,-29.59147902096019,-51.3623836741728,734
734,95758,sao pedro da serra,RS,-29.4393534226851,-51.749732971191406,735
735,95758,são pedro da serra,RS,-29.42403984069824,-51.51023864746094,736
736,95755,sao jose do hortencio,RS,-29.541787764605356,-51.25374872544233,737
737,95755,são josé do hortêncio,RS,-29.534348169962566,-51.25053151448568,738
738,95750,salvador do sul,RS,-29.441412228804367,-51.51055666116568,739
739,95748,sao jose do sul,RS,-29.541483306884764,-51.42179183959961,740
740,95745,capela de santana,RS,-29.681261675698416,-51.32123361315046,741
741,95740,poco das antas,RS,-29.45120506286621,-51.673789978027344,742
742,95740,poço das antas,RS,-29.450714111328125,-51.67166519165039,743
743,95735,roca sales,RS,-29.286559276091747,-51.87245530348558,744
744,95730,barao,RS,-29.376669459872776,-51.49824439154731,745
745,95730,barão,RS,-29.375751495361328,-51.50138473510742,746
746,95727,boa vista do sul,RS,-29.34647274017334,-51.67305374145508,747
747,95726,coronel pilar,RS,-29.27242851257324,-51.6802864074707,748
748,95720,garibaldi,RS,-29.25390163089918,-51.52820819357167,749
749,95718,monte belo do sul,RS,-29.16319441795349,-51.63695335388184,750
750,95717,pinto bandeira,RS,-29.106822331746415,-51.45989608764648,751
751,95711,vale dos vinhedos,RS,-29.17519187927246,-51.56925964355469,752
752,95710,tuiuti,RS,-29.203975677490234,-51.53130340576172,753
753,95709,bento goncalves,RS,-29.122862815856934,-51.5411548614502,754
754,95709,bento gonçalves,RS,-29.12300109863281,-51.54072570800781,755
755,95708,bento goncalves,RS,-29.138363860374277,-51.5259939681652,756
756,95708,bento gonçalves,RS,-29.138302357991535,-51.52836380004883,757
757,95707,bento goncalves,RS,-29.155284064156668,-51.5303827558245,758
758,95707,bento gonçalves,RS,-29.15337137075571,-51.53436426016,759
759,95706,bento goncalves,RS,-29.154093742370605,-51.49351191520691,760
760,95706,bento gonçalves,RS,-29.15514707565308,-51.49302673339844,761
761,95705,bento goncalves,RS,-29.15583882729213,-51.51351686318716,762
762,95705,bento gonçalves,RS,-29.154923030308314,-51.51098923456101,763
763,95703,bento goncalves,RS,-29.16805458068848,-51.50484057033764,764
764,95703,bento gonçalves,RS,-29.167506959703232,-51.50492795308431,765
765,95702,bento goncalves,RS,-29.18250713013766,-51.49967621920402,766
766,95702,bento gonçalves,RS,-29.181060695648192,-51.50095405578613,767
767,95701,bento goncalves,RS,-29.17339038848877,-51.52776257197062,768
768,95701,bento gonçalves,RS,-29.1703306833903,-51.53087488810221,769
769,95700,bento goncalves,RS,-29.17030814784741,-51.5158150862103,770
770,95700,bento gonçalves,RS,-29.170573949813843,-51.515942096710205,771
771,95695,riozinho,RS,-29.6417818069458,-50.45891920725504,772
772,95690,rolante,RS,-29.6496336195204,-50.57292603857724,773
773,95680,canela,RS,-29.36052257913939,-50.81028934263847,774
774,95670,gramado,RS,-29.381737613677977,-50.874011621977154,775
775,95660,tres coroas,RS,-29.51087192822528,-50.7814455750168,776
776,95660,três coroas,RS,-29.51290669934503,-50.78020543065564,777
777,95650,igrejinha,RS,-29.57197755859012,-50.79472980045137,778
778,95630,parobe,RS,-29.631744062199317,-50.83481168746948,779
779,95630,parobé,RS,-29.631433609993227,-50.83353128740865,780
780,95625,imbe,RS,-29.95180935329861,-50.12023014492459,781
781,95625,imbé,RS,-29.94267463684082,-50.11521644592285,782
782,95612,taquara,RS,-29.641915321350098,-50.787946701049805,783
783,95611,taquara,RS,-29.643747568130493,-50.780033588409424,784
784,95609,taquara,RS,-29.64058303833008,-50.77144726839933,785
785,95607,taquara,RS,-29.651418759272648,-50.77095207801232,786
786,95605,taquara,RS,-29.660858154296875,-50.76905536651611,787
787,95603,taquara,RS,-29.66377671559652,-50.776392777760826,788
788,95601,taquara,RS,-29.661476816449845,-50.78314208984375,789
789,95600,taquara,RS,-29.6507328328952,-50.78239975512867,790
790,95599,balneario pinhal,RS,-30.24433322386308,-50.264652945778586,791
791,95599,balneário pinhal,RS,-30.23990249633789,-50.2523676554362,792
792,95595,cidreira,RS,-30.181172444270207,-50.21367416381836,793
793,95590,tramandai,RS,-30.00523391870352,-50.14969950455885,794
794,95590,tramandaí,RS,-30.006276448567707,-50.15026378631592,795
795,95589,rainha do mar,RS,-29.8519926071167,-50.0669059753418,796
796,95588,xangri-la,RS,-29.80249575773875,-50.04583990573883,797
797,95588,xangrila,RS,-29.8250675201416,-50.0526237487793,798
798,95588,xangri-lá,RS,-29.808149791899183,-50.04978089105515,799
799,95585,arroio do sal,RS,-29.54094226272018,-49.8852670457628,800
800,95580,tres cachoeiras,RS,-29.453452618091134,-49.9212771824428,801
801,95580,três cachoeiras,RS,-29.455094973246258,-49.924025535583496,802
802,95577,morrinhos do sul,RS,-29.351802110672,-49.940120220184326,803
803,95575,tres forquilhas,RS,-29.53564214706421,-50.03682518005371,804
804,95568,dom pedro de alcantara,RS,-29.36917389763726,-49.85161039564345,805
805,95568,dom pedro de alcântara,RS,-29.37732315063477,-49.85765838623047,806
806,95560,torres,RS,-29.34114240653248,-49.744919580673056,807
807,95558,curumim,RS,-29.625789642333984,-49.93731689453125,808
808,95556,capao novo,RS,-29.658191680908203,-49.95919418334961,809
809,95555,capao da canoa,RS,-29.732205352267705,-50.00664692956048,810
810,95555,capão da canoa,RS,-29.738591032208134,-50.01044788000719,811
811,95552,capivari do sul,RS,-30.143817901611328,-50.51140149434408,812
812,95548,quintao,RS,-30.254420689174108,-50.35886655535017,813
813,95540,palmares do sul,RS,-30.27076068068996,-50.4976042545203,814
814,95538,itati,RS,-29.45985539754232,-50.13427480061849,815
815,95535,terra de areia,RS,-29.57970356941223,-50.06461057662964,816
816,95530,maquine,RS,-29.652002652486164,-50.21291224161784,817
817,95530,maquiné,RS,-29.675923347473145,-50.20176887512207,818
818,95528,santa luzia,RS,-29.97408866882324,-50.199501037597656,819
819,95520,osorio,RS,-29.895176966985066,-50.254204562216096,820
820,95520,osório,RS,-29.897920649102392,-50.26383931586083,821
821,95515,caraa,RS,-29.79188537597656,-50.44054412841797,822
822,95515,caraá,RS,-29.791349411010746,-50.43409729003906,823
823,95500,santo antonio da patrulha,RS,-29.83164907693863,-50.52220425605774,824
824,95500,santo antônio da patrulha,RS,-29.84085610707601,-50.50877647399902,825
825,95485,osvaldo kroeff,RS,-28.976686477661133,-50.063262939453125,826
826,95480,cambara do sul,RS,-29.04360270500183,-50.13917136192322,827
827,95480,cambará do sul,RS,-29.093093395233154,-50.17187309265137,828
828,95420,jaquirana,RS,-28.88397479057312,-50.35783314704895,829
829,95400,sao francisco de paula,RS,-29.438796321048013,-50.58158391638647,830
830,95400,são francisco de paula,RS,-29.44585149428424,-50.581322838278375,831
831,95390,pinhal da serra,RS,-30.233661651611328,-50.23357391357422,832
832,95380,esmeralda,RS,-28.056984901428223,-51.18956343332926,833
833,95370,barracao,RS,-27.675855565954137,-51.45833884345161,834
834,95370,barracão,RS,-27.68493207295736,-51.45462989807129,835
835,95365,sao jorge,RS,-28.50220430814303,-51.70498158381535,836
836,95360,parai,RS,-28.596928319623395,-51.78687114100303,837
837,95360,paraí,RS,-28.59438260396321,-51.78771845499674,838
838,95355,guabiju,RS,-28.542458216349285,-51.691383361816406,839
839,95350,nova araca,RS,-28.659513906999067,-51.7480583190918,840
840,95350,nova araçá,RS,-28.660144170125324,-51.752838134765625,841
841,95345,protasio alves,RS,-28.75923538208008,-51.475093841552734,842
842,95340,nova bassano,RS,-28.732756678263343,-51.70457070668538,843
843,95335,cotipora,RS,-28.993046533493768,-51.69765363420759,844
844,95335,cotiporã,RS,-28.99117946624756,-51.696306228637695,845
845,95334,vila flores,RS,-28.860238711039223,-51.55260721842448,846
846,95333,fagundes varela,RS,-28.88084936141968,-51.698155879974365,847
847,95330,veranopolis,RS,-28.936257184937944,-51.5493767538736,848
848,95330,veranópolis,RS,-28.938987395342657,-51.550433102776026,849
849,95325,vista alegre do prata,RS,-28.80823080880301,-51.78301402500698,850
850,95320,nova prata,RS,-28.78225457040887,-51.60921301590769,851
851,95315,caseiros,RS,-28.270965869610126,-51.69684101985051,852
852,95310,andre da rocha,RS,-28.63235855102539,-51.57324600219727,853
853,95310,andré da rocha,RS,-28.63332462310791,-51.573692321777344,854
854,95305,ibiraiaras,RS,-28.37137504245924,-51.63699581312097,855
855,95300,lagoa vermelha,RS,-28.211900748458564,-51.52518474354464,856
856,95290,bom jesus,RS,-28.671372509002687,-50.43412246704101,857
857,95280,sao jose dos ausentes,RS,-28.73568344116211,-50.05006758371989,858
858,95280,são josé dos ausentes,RS,-28.745960235595703,-50.05960464477539,859
859,95275,nova padua,RS,-29.027734756469727,-51.30878448486328,860
860,95275,nova pádua,RS,-29.02755610148112,-51.309251149495445,861
861,95272,flores da cunha,RS,-29.056604385375977,-51.26110458374024,862
862,95272,otavio rocha,RS,-29.05943202972412,-51.2613410949707,863
863,95270,flores da cunha,RS,-29.035257054613783,-51.18315473779455,864
864,95260,nova roma do sul,RS,-28.9872345643885,-51.4078535192153,865
865,95255,campestre da serra,RS,-28.788561734286223,-51.09526408802379,866
866,95250,antonio prado,RS,-28.85721486409505,-51.28458923339844,867
867,95250,antônio prado,RS,-28.854640833536784,-51.28150482177735,868
868,95240,ipe,RS,-28.7982466848273,-51.29208695261102,869
869,95240,ipê,RS,-28.819275856018063,-51.27927207946777,870
870,95236,monte alegre dos campos,RS,-28.68405876159668,-50.78248596191406,871
871,95230,muitos capoes,RS,-28.31875991821289,-51.18551445007324,872
872,95200,vacaria,RS,-28.50597469342021,-50.93824137971043,873
873,95190,sao marcos,RS,-28.969458641544467,-51.06861443673411,874
874,95190,são marcos,RS,-28.964545694986978,-51.06983388264974,875
875,95186,arco verde,RS,-29.350271224975582,-51.54791259765625,876
876,95185,carlos barbosa,RS,-29.29807176635164,-51.502600990765465,877
877,95184,jansen,RS,-29.13360977172852,-51.37221908569336,878
878,95183,nova sardenha,RS,-29.241121292114254,-51.41159439086914,879
879,95182,nova milano,RS,-29.276315689086918,-51.33767064412435,880
880,95181,farroupilha,RS,-29.23999512195587,-51.34716176986694,881
881,95181,jansen,RS,-29.134711265563965,-51.3723087310791,882
882,95180,farroupilha,RS,-29.22709036447916,-51.34865094380206,883
883,95179,farroupilha,RS,-29.237247467041016,-51.325700759887695,884
884,95178,farroupilha,RS,-29.256778399149574,-51.429353925916885,885
885,95177,farroupilha,RS,-29.21397638320923,-51.32541561126709,886
886,95176,farroupilha,RS,-29.21733283996582,-51.3405876159668,887
887,95175,picada cafe,RS,-29.442793677834903,-51.13125632790958,888
888,95175,picada café,RS,-29.473609924316406,-51.151458740234375,889
889,95174,farroupilha,RS,-29.206717711228592,-51.34691971998949,890
890,95173,farroupilha,RS,-29.274206161499023,-51.32619063059489,891
891,95172,farroupilha,RS,-29.21895512667569,-51.35097191550515,892
892,95171,farroupilha,RS,-29.22874641418457,-51.36481285095215,893
893,95170,farroupilha,RS,-29.405237171385025,-51.32578913370768,894
894,95166,picada cafe,RS,-29.453813552856445,-51.13724344426935,895
895,95166,picada café,RS,-29.460093816121415,-51.14633305867513,896
896,95160,pinhal alto,RS,-29.405364354451496,-51.03635533650717,897
897,95150,nova petropolis,RS,-29.37559406882838,-51.10792196173417,898
898,95150,nova petrópolis,RS,-29.37330764770508,-51.10940139770508,899
899,95130,santa lucia do piai,RS,14.58507251739502,121.10539245605467,900
900,95125,fazenda souza,RS,-29.125280380249023,-51.01472091674805,901
901,95124,caxias do sul,RS,-29.09730987548828,-51.12826385498047,902
902,95115,caxias do sul,RS,-29.213290320502388,-51.2777960035536,903
903,95112,caxias do sul,RS,-29.17077157663745,-51.23096191051395,904
904,95110,caxias do sul,RS,-29.190856222379004,-51.23023951255669,905
905,95100,caxias do sul,RS,-29.174152374267575,-51.185054779052734,906
906,95099,caxias do sul,RS,-29.17815523147583,-51.19737567901611,907
907,95098,caxias do sul,RS,-29.19067110913865,-51.18729489914914,908
908,95097,caxias do sul,RS,-29.179997312611547,-51.18968595307449,909
909,95096,caxias do sul,RS,-29.17788274826542,-51.189896614320816,910
910,95095,caxias do sul,RS,-29.199968938077436,-51.20025489035617,911
911,95090,caxias do sul,RS,-29.22755919562446,-51.160472022162544,912
912,95088,caxias do sul,RS,-29.19544334411621,-51.16706063406808,913
913,95086,caxias do sul,RS,-29.183424698679072,-51.16679844103361,914
914,95084,caxias do sul,RS,-29.172077740941727,-51.17274563653128,915
915,95082,caxias do sul,RS,-29.177823554144965,-51.17328092787001,916
916,95080,caxias do sul,RS,-29.17368365201083,-51.18183385675604,917
917,95076,caxias do sul,RS,-29.17821654677391,-51.14868462085724,918
918,95074,caxias do sul,RS,-29.170436927250453,-51.1403021812439,919
919,95072,caxias do sul,RS,-29.17329906281971,-51.15179025559198,920
920,95070,caxias do sul,RS,-29.16744887828827,-51.154831091562905,921
921,95065,caxias do sul,RS,-29.079822540283203,-51.10581207275391,922
922,95062,caxias do sul,RS,-29.094112396240234,-51.07730484008789,923
923,95060,caxias do sul,RS,-29.12900644938151,-51.12098185221354,924
924,95059,caxias do sul,RS,-29.11603840098661,-51.125634765625,925
925,95058,caxias do sul,RS,-29.12785890367296,-51.11993726094564,926
926,95057,caxias do sul,RS,-29.13954795490612,-51.140155618841,927
927,95055,caxias do sul,RS,-29.151061693827312,-51.14292544410343,928
928,95054,caxias do sul,RS,-29.157500666956743,-51.15502609745149,929
929,95052,caxias do sul,RS,-29.153622157989982,-51.16335793147012,930
930,95050,caxias do sul,RS,-29.15396685932958,-51.16480672082236,931
931,95047,caxias do sul,RS,-29.120617230733234,-51.182188510894775,932
932,95046,caxias do sul,RS,-29.108003616333008,-51.19179534912109,933
933,95045,caxias do sul,RS,-29.127261125124416,-51.17453494438758,934
934,95044,caxias do sul,RS,-29.138559023539223,-51.19707361857096,935
935,95043,caxias do sul,RS,-29.142738306963885,-51.182158929330335,936
936,95042,caxias do sul,RS,-29.135063109859345,-51.17879461473034,937
937,95041,caxias do sul,RS,-29.151228065490724,-51.18157768249512,938
938,95040,caxias do sul,RS,-29.15430112985464,-51.174019935803535,939
939,95034,caxias do sul,RS,-29.160194396972656,-51.18925938037557,940
940,95032,caxias do sul,RS,-29.14802683421544,-51.20192072732108,941
941,95030,caxias do sul,RS,-29.154237788656484,-51.217288473378055,942
942,95020,caxias do sul,RS,-29.166313803440666,-51.17831398524847,943
943,95013,caxias do sul,RS,-29.16288448202199,-51.20380598923256,944
944,95012,caxias do sul,RS,-29.17266955971718,-51.210729122161865,945
945,95010,caxias do sul,RS,-29.17005766139311,-51.18621781293084,946
946,94970,cachoeirinha,RS,-29.88719467889695,-51.090846833728605,947
947,94967,cachoeirinha,RS,-29.911602020263672,-51.075148264567055,948
948,94965,cachoeirinha,RS,-29.904950883653427,-51.070304022894966,949
949,94960,cachoeirinha,RS,-29.912722249825794,-51.08481419086456,950
950,94955,cachoeirinha,RS,-29.916030259565872,-51.07581253051758,951
951,94950,cachoeirinha,RS,-29.94647674190188,-51.08007671763596,952
952,94945,cachoeirinha,RS,-29.92825505041307,-51.08079098116967,953
953,94940,cachoeirinha,RS,-29.93596803225004,-51.08834926898663,954
954,94935,cachoeirinha,RS,-29.94272336567918,-51.09650368886451,955
955,94931,cachoeirinha,RS,-29.48396530151367,-50.80235951741536,956
956,94930,cachoeirinha,RS,-29.94108137973519,-51.10745673955873,957
957,94920,cachoeirinha,RS,-29.957013209660847,-51.10229598151313,958
958,94910,cachoeirinha,RS,-29.952693163338356,-51.097790443291096,959
959,94901,cachoeirinha,RS,-29.950756072998047,-51.10047912597656,960
960,94859,alvorada,RS,-30.032180150349934,-51.08218030576353,961
961,94858,alvorada,RS,-30.03208902147081,-51.072990629408096,962
962,94856,alvorada,RS,-30.04293711980184,-51.06500975290934,963
963,94855,alvorada,RS,-30.039381557040745,-51.05661137898763,964
964,94853,alvorada,RS,-30.02139263153076,-51.061249313354494,965
965,94852,alvorada,RS,-30.00774157047272,-51.04936516284943,966
966,94850,alvorada,RS,-30.02035004752023,-51.07946107825455,967
967,94838,alvorada,RS,-30.01675720214844,-51.04799194335938,968
968,94836,alvorada,RS,-29.99116274515788,-51.0187494913737,969
969,94834,alvorada,RS,-29.99307079315185,-51.04546413421631,970
970,94830,alvorada,RS,-29.98525619506836,-51.03289413452149,971
971,94828,alvorada,RS,-29.992863998413085,-51.05901176452637,972
972,94824,alvorada,RS,-29.991573820722863,-51.07314324886241,973
973,94820,alvorada,RS,-29.99165127882317,-51.08151062922691,974
974,94818,alvorada,RS,-30.0043857050877,-51.0543981813917,975
975,94814,alvorada,RS,-30.00383653032019,-51.07295657218771,976
976,94810,alvorada,RS,-30.006489379496514,-51.07951417753968,977
977,94770,capao da porteira,RS,-30.092809677124023,-50.69438934326172,978
978,94760,aguas claras,RS,-28.000303649902342,-49.17546157836914,979
979,94515,viamao,RS,-30.07336139678955,-51.05073483784994,980
980,94515,viamão,RS,-30.073823928833008,-51.04560089111328,981
981,94510,viamao,RS,-30.057303654063837,-51.079807073419744,982
982,94510,viamão,RS,-30.05914878845215,-51.07350730895996,983
983,94505,viamao,RS,-30.13464736938477,-51.07011413574219,984
984,94505,viamão,RS,-30.13464736938477,-51.07011413574219,985
985,94500,viamao,RS,-30.06767374674479,-51.11127675374349,986
986,94500,viamão,RS,-30.06654262542725,-51.1117197672526,987
987,94495,viamao,RS,-30.0566201210022,-51.09092126573835,988
988,94495,viamão,RS,-30.057859897613525,-51.09179178873698,989
989,94490,viamao,RS,-30.061096668243408,-51.09898440043131,990
990,94490,viamão,RS,-30.06499481201172,-51.11920928955078,991
991,94480,viamao,RS,-30.06582001464008,-51.10421606612532,992
992,94480,viamão,RS,-30.063375091552736,-51.10469093322754,993
993,94475,viamao,RS,-30.073375232884143,-51.09263023001249,994
994,94475,viamão,RS,-30.0748529995189,-51.09500727933996,995
995,94470,viamao,RS,-30.088554991052504,-51.0847688228526,996
996,94470,viamão,RS,-30.08796710968017,-51.08463745117187,997
997,94465,viamao,RS,-30.124107905796595,-51.086364201137,998
998,94465,viamão,RS,-30.115936279296875,-51.07897186279297,999
999,94463,viamao,RS,-30.13803482055664,-50.86687088012695,1000
1000,94460,viamao,RS,-30.11287236213684,-51.07459902763367,1001
1001,94460,viamão,RS,-30.121143341064453,-51.07610893249512,1002
1002,94455,viamao,RS,-30.10467059795673,-51.06740144582895,1003
1003,94455,viamão,RS,-30.10842752456665,-51.06626605987549,1004
1004,94451,viamao,RS,-30.078957239786785,-51.05383639865451,1005
1005,94451,viamão,RS,-30.070583979288735,-51.05012639363607,1006
1006,94450,viamao,RS,-30.08798868228228,-51.0713020715958,1007
1007,94450,viamão,RS,-30.0866962779652,-51.06935015591708,1008
1008,94445,viamao,RS,-30.098507027877005,-51.0593779714484,1009
1009,94445,viamão,RS,-30.09795837402344,-51.06039810180664,1010
1010,94440,viamao,RS,-30.08443340035372,-51.05199609800827,1011
1011,94440,viamão,RS,-30.082602739334103,-51.05036783218384,1012
1012,94435,viamao,RS,-30.08419252211048,-51.04031175182712,1013
1013,94435,viamão,RS,-30.08676109313965,-51.03953475952149,1014
1014,94430,viamao,RS,-30.098656394264918,-51.02315399863503,1015
1015,94430,viamão,RS,-30.10173110961914,-51.01384048461914,1016
1016,94425,viamao,RS,-30.079928080240887,-51.00480306716192,1017
1017,94425,viamão,RS,-30.07408142089844,-50.99922561645508,1018
1018,94420,viamao,RS,-30.026702608381,-51.02464442350426,1019
1019,94420,viamão,RS,-30.02114977155413,-51.02261897495815,1020
1020,94416,viamao,RS,-30.067533493041992,-51.025282859802246,1021
1021,94415,viamao,RS,-30.072336276372276,-51.02376715342204,1022
1022,94415,viamão,RS,-30.07497199376424,-51.02459239959717,1023
1023,94410,viamao,RS,-30.08318440667514,-51.02387743982776,1024
1024,94410,viamão,RS,-30.08518908574031,-51.01255798339844,1025
1025,94380,glorinha,RS,-29.881225268046062,-50.78352578481039,1026
1026,94199,gravatai,RS,-29.923852333655724,-50.96379617544321,1027
1027,94199,gravataí,RS,-29.93068504333496,-50.97060012817383,1028
1028,94198,gravatai,RS,-29.920713243030367,-50.90514809744699,1029
1029,94198,gravataí,RS,-29.923106602260045,-50.91764341081892,1030
1030,94197,gravatai,RS,-29.92297524672288,-50.92788285475511,1031
1031,94197,gravataí,RS,-29.92751121520996,-50.9299062093099,1032
1032,94196,gravatai,RS,-29.8970890045166,-50.898921966552734,1033
1033,94195,gravatai,RS,-29.948275061214677,-50.95433134191177,1034
1034,94195,gravataí,RS,-29.945412317911785,-50.939788818359375,1035
1035,94190,gravatai,RS,-29.95507941038712,-50.974055331686266,1036
1036,94190,gravataí,RS,-29.952412287394207,-50.97531509399414,1037
1037,94185,gravatai,RS,-29.945151487986248,-50.97208468119303,1038
1038,94185,gravataí,RS,-29.94613647460937,-50.96945571899414,1039
1039,94180,gravatai,RS,-29.94057731628418,-50.95932858784993,1040
1040,94180,gravataí,RS,-29.938698087419784,-50.95205415998186,1041
1041,94175,gravatai,RS,-29.885986328125,-51.000674883524574,1042
1042,94175,gravataí,RS,-29.897112528483078,-50.9896494547526,1043
1043,94170,gravatai,RS,-29.920729116960004,-50.99970730868253,1044
1044,94170,gravataí,RS,-29.92195659213596,-50.999676598442925,1045
1045,94155,gravatai,RS,-29.920752274362663,-51.01661652012875,1046
1046,94155,gravataí,RS,-29.925420216151647,-51.02317265101841,1047
1047,94150,gravatai,RS,-29.93070049285889,-51.02476762135824,1048
1048,94150,gravataí,RS,-29.931468963623047,-51.02502123514811,1049
1049,94140,gravatai,RS,-29.91331990559896,-51.03404235839844,1050
1050,94135,gravatai,RS,-29.92512667620624,-51.0396614074707,1051
1051,94135,gravataí,RS,-29.92806879679362,-51.04249890645345,1052
1052,94130,gravatai,RS,-29.922619270555906,-51.03627314712062,1053
1053,94130,gravataí,RS,-29.921497344970703,-51.037415186564125,1054
1054,94120,gravatai,RS,-29.914528165544784,-51.05019360496884,1055
1055,94120,gravataí,RS,-29.910484313964844,-51.05145590645926,1056
1056,94110,gravatai,RS,-29.911410794939314,-51.06061717442104,1057
1057,94110,gravataí,RS,-29.912584686279292,-51.06222991943359,1058
1058,94100,gravatai,RS,-29.904036970699536,-51.029185575597424,1059
1059,94100,gravataí,RS,-29.90948976789202,-51.01916231427874,1060
1060,94090,gravatai,RS,-29.92868242263794,-51.05140190124512,1061
1061,94090,gravataí,RS,-29.928531964619957,-51.0519822438558,1062
1062,94085,gravatai,RS,-29.920589447021484,-51.05958847772507,1063
1063,94085,gravataí,RS,-29.9198728288923,-51.06045314243862,1064
1064,94080,gravatai,RS,-29.92387447357178,-51.06438026428223,1065
1065,94080,gravataí,RS,-29.921353149414063,-51.0661678314209,1066
1066,94075,gravatai,RS,-29.93773237864177,-51.06316004859077,1067
1067,94075,gravataí,RS,-29.938136509486608,-51.06389127458845,1068
1068,94071,gravatai,RS,-29.93583106994629,-51.068241119384766,1069
1069,94070,gravatai,RS,-29.938411712646484,-51.06880628145658,1070
1070,94070,gravataí,RS,-29.94028854370117,-51.06852149963379,1071
1071,94065,gravatai,RS,-29.944895362854005,-51.04747924804688,1072
1072,94065,gravataí,RS,-29.945225098553827,-51.05155518475701,1073
1073,94060,gravatai,RS,-29.94018827165876,-51.05196562267485,1074
1074,94060,gravataí,RS,-29.93403328789605,-51.0497080485026,1075
1075,94055,gravatai,RS,-29.94086300243031,-51.034737673672765,1076
1076,94055,gravataí,RS,-29.941169526841904,-51.035406748453774,1077
1077,94050,gravatai,RS,-29.93993403116862,-51.043718338012695,1078
1078,94050,gravataí,RS,-29.931909561157227,-51.07360458374024,1079
1079,94045,gravatai,RS,-29.944604526866566,-51.02067808671431,1080
1080,94045,gravataí,RS,-29.948691685994465,-51.02764892578125,1081
1081,94040,gravatai,RS,-29.93981820344925,-51.02914011478424,1082
1082,94040,gravataí,RS,-29.939535564846462,-51.0292837354872,1083
1083,94035,gravatai,RS,-29.944117148717243,-50.99913295110067,1084
1084,94035,gravataí,RS,-29.943428421020503,-50.99990959167481,1085
1085,94030,gravatai,RS,-29.93916502453032,-51.01406506129673,1086
1086,94030,gravataí,RS,-29.94172897338867,-51.01783752441406,1087
1087,94025,gravatai,RS,-29.93239443642753,-51.00159999302456,1088
1088,94025,gravataí,RS,-29.931485176086422,-51.0057373046875,1089
1089,94020,gravatai,RS,-29.935382282032688,-51.00229914048139,1090
1090,94020,gravataí,RS,-29.93070888519287,-51.00210189819336,1091
1091,94015,gravatai,RS,-29.931197750952936,-50.992004271476496,1092
1092,94015,gravataí,RS,-29.932349068777903,-50.99075208391462,1093
1093,94010,gravatai,RS,-29.94031016797905,-50.99237800506224,1094
1094,94010,gravataí,RS,-29.940875598362517,-50.99142265319824,1095
1095,93995,santa maria do herval,RS,-29.49415105931899,-50.97731242460363,1096
1096,93990,morro reuter,RS,-29.53946030658224,-51.08264806996221,1097
1097,93950,dois irmaos,RS,-29.587714672088623,-51.09147526877267,1098
1098,93950,dois irmãos,RS,-29.58471972147624,-51.08999621073405,1099
1099,93945,presidente lucena,RS,-29.5182864849384,-51.17970451941857,1100
1100,93940,lindolfo collor,RS,-29.59726537068685,-51.209442647298175,1101
1101,93900,ivoti,RS,-29.60528688622801,-51.16427791518653,1102
1102,93890,nova hartz,RS,-29.588354505341627,-50.90067679306557,1103
1103,93880,ararica,RS,-29.618288887871635,-50.92931238810221,1104
1104,93880,araricá,RS,-29.624217224121093,-50.92472763061524,1105
1105,93822,sapiranga,RS,-29.62918930053711,-50.96025924682617,1106
1106,93821,sapiranga,RS,-29.631618576049803,-50.97500778198242,1107
1107,93820,sapiranga,RS,-29.62673568725586,-50.980918884277344,1108
1108,93819,sapiranga,RS,-29.63376744588216,-50.99491684525101,1109
1109,93815,sapiranga,RS,-29.65460205078125,-50.982872009277344,1110
1110,93807,sapiranga,RS,-29.662951469421387,-50.9992421468099,1111
1111,93806,sapiranga,RS,-29.65142174486844,-51.00238440171728,1112
1112,93805,sapiranga,RS,-29.64778232574463,-51.02547550201416,1113
1113,93804,sapiranga,RS,-29.638871980750043,-51.02256940758747,1114
1114,93801,sapiranga,RS,-29.617156982421875,-50.99639892578125,1115
1115,93800,sapiranga,RS,-29.63655058329537,-51.00782430251973,1116
1116,93700,campo bom,RS,-29.67704497126048,-51.06040351547881,1117
1117,93616,estancia velha,RS,-29.66301918029785,-51.21322250366211,1118
1118,93615,estancia velha,RS,-29.688239574432373,-51.18287420272827,1119
1119,93615,estância velha,RS,-29.654659271240234,-51.189823150634766,1120
1120,93614,estancia velha,RS,-29.659136295318604,-51.19117069244385,1121
1121,93614,estância velha,RS,-29.65597438812256,-51.18112564086914,1122
1122,93612,estancia velha,RS,-29.66787624359131,-51.19301509857178,1123
1123,93611,estancia velha,RS,-29.66857655843099,-51.1749153137207,1124
1124,93611,estância velha,RS,-29.795482635498047,-51.16729164123535,1125
1125,93610,estancia velha,RS,-29.65522506020286,-51.16935903375799,1126
1126,93610,estância velha,RS,-29.654184341430664,-51.17067031860351,1127
1127,93609,estancia velha,RS,-29.66377544403076,-51.15917205810547,1128
1128,93609,estância velha,RS,-28.978705883026123,-50.638309478759766,1129
1129,93608,estancia velha,RS,-28.455579694112146,-50.23598073323568,1130
1130,93608,estância velha,RS,-29.7185302734375,-51.14865036010743,1131
1131,93607,estancia velha,RS,-11.274703979492188,-37.44243621826172,1132
1132,93604,estancia velha,RS,-29.65007781982422,-51.22079086303711,1133
1133,93601,estancia velha,RS,-29.649779319763184,-51.17201614379883,1134
1134,93601,estância velha,RS,-29.64150199890137,-51.16497650146484,1135
1135,93600,estancia velha,RS,-29.656348719180208,-51.17132112817857,1136
1136,93600,estância velha,RS,-29.650136184692386,-51.17630043029785,1137
1137,93548,novo hamburgo,RS,-29.688884824865006,-51.11443620569565,1138
1138,93546,novo hamburgo,RS,-29.69905625015009,-51.10059262885422,1139
1139,93544,novo hamburgo,RS,-29.69564571380615,-51.08821853637696,1140
1140,93542,novo hamburgo,RS,-29.684330827098783,-51.0929842156879,1141
1141,93540,novo hamburgo,RS,-29.6809267611117,-51.10346912693333,1142
1142,93537,novo hamburgo,RS,-29.67146894666884,-51.09442541334364,1143
1143,93534,novo hamburgo,RS,-29.66780673980713,-51.10495872497559,1144
1144,93530,novo hamburgo,RS,-29.6531631206644,-51.10769416546,1145
1145,93525,novo hamburgo,RS,-29.66871472408897,-51.1178802691008,1146
1146,93520,novo hamburgo,RS,-29.674528280893963,-51.12607676188152,1147
1147,93510,novo hamburgo,RS,-29.682440763904204,-51.12347121700164,1148
1148,93490,novo hamburgo,RS,-29.753679428100583,-51.04851287841797,1149
1149,93425,novo hamburgo,RS,-29.721097169099032,-51.114514103642215,1150
1150,93420,novo hamburgo,RS,-29.729169448216755,-51.132861614227295,1151
1151,93415,novo hamburgo,RS,-29.706591579649185,-51.12192466523912,1152
1152,93410,novo hamburgo,RS,-29.694265253403607,-51.126749420166014,1153
1153,93351,novo hamburgo,RS,-29.643953577677408,-51.1388437906901,1154
1154,93348,novo hamburgo,RS,-29.674727651808,-51.14719348483615,1155
1155,93347,novo hamburgo,RS,-29.682879209518436,-51.16542116800944,1156
1156,93346,novo hamburgo,RS,-29.6743676845844,-51.1534847846398,1157
1157,93344,novo hamburgo,RS,-29.68373155593872,-51.15144968032837,1158
1158,93340,novo hamburgo,RS,-29.691335678100582,-51.148994279944375,1159
1159,93336,novo hamburgo,RS,-29.69421295752892,-51.13774020855244,1160
1160,93334,novo hamburgo,RS,-29.706552701118664,-51.14139175415039,1161
1161,93332,novo hamburgo,RS,-29.712986128670828,-51.13718455178397,1162
1162,93330,novo hamburgo,RS,-29.71944808959961,-51.14092487242164,1163
1163,93320,novo hamburgo,RS,-29.70481292406718,-51.13227314419217,1164
1164,93315,novo hamburgo,RS,-29.676251699054053,-51.134224361843536,1165
1165,93310,novo hamburgo,RS,-29.68271239085864,-51.13737996419271,1166
1166,93295,esteio,RS,-29.859600067138672,-51.13140025283351,1167
1167,93290,esteio,RS,-29.85657196044922,-51.14254252115885,1168
1168,93285,esteio,RS,-29.858825081273128,-51.15642413758395,1169
1169,93280,esteio,RS,-29.850192172710717,-51.15580274141752,1170
1170,93270,esteio,RS,-29.84563776652018,-51.18285115559896,1171
1171,93265,esteio,RS,-29.85231876373291,-51.17015289048017,1172
1172,93260,esteio,RS,-29.84457937876384,-51.16850737029431,1173
1173,93234,sapucaia do sul,RS,-29.858543395996094,-51.10655212402344,1174
1174,93230,sapucaia do sul,RS,-29.845000707186184,-51.1265926361084,1175
1175,93228,sapucaia do sul,RS,-29.84589636666434,-51.13315135410854,1176
1176,93226,sapucaia do sul,RS,-29.839224748833235,-51.1466055581736,1177
1177,93225,sapucaia do sul,RS,-29.832055543598376,-51.13008278294613,1178
1178,93224,sapucaia do sul,RS,-29.83308038257417,-51.13776411328997,1179
1179,93222,sapucaia do sul,RS,-29.81959192376388,-51.13705223485043,1180
1180,93220,sapucaia do sul,RS,-29.82898051922138,-51.15068636185084,1181
1181,93219,sapucaia do sul,RS,-29.802156448364254,-51.131813049316406,1182
1182,93218,sapucaia do sul,RS,-29.81459651849209,-51.14647224621895,1183
1183,93216,sapucaia do sul,RS,-29.81579293702778,-51.154712877775495,1184
1184,93214,sapucaia do sul,RS,-29.82242753770616,-51.15954271952311,1185
1185,93212,sapucaia do sul,RS,-29.811377800835505,-51.17268973456488,1186
1186,93211,sapucaia do sul,RS,-29.79768943786621,-51.18579864501953,1187
1187,93210,sapucaia do sul,RS,-29.825803756713867,-51.15674591064453,1188
1188,93180,portao,RS,-29.69358351922804,-51.23371202202254,1189
1189,93180,portão,RS,-29.69660989443461,-51.23116079966227,1190
1190,93150,sao leopoldo,RS,-29.70134449005127,-51.19403839111328,1191
1191,93150,são leopoldo,RS,-29.70036506652832,-51.19466400146485,1192
1192,93145,sao leopoldo,RS,-29.718746423721317,-51.183000802993774,1193
1193,93145,são leopoldo,RS,-29.715843836466476,-51.176778157552086,1194
1194,93140,sao leopoldo,RS,-29.727798885769317,-51.1706051296658,1195
1195,93140,são leopoldo,RS,-29.723034540812176,-51.17570368448893,1196
1196,93135,sao leopoldo,RS,-29.736765967475044,-51.16838638870804,1197
1197,93135,são leopoldo,RS,-29.734819412231445,-51.16879558563232,1198
1198,93130,sao leopoldo,RS,-29.74805771220814,-51.15677902915261,1199
1199,93130,são leopoldo,RS,-29.74809837341309,-51.15750408172608,1200
1200,93125,sao leopoldo,RS,-29.69950736652721,-51.159984068437055,1201
1201,93125,são leopoldo,RS,-29.73114538192749,-51.15365982055664,1202
1202,93120,sao leopoldo,RS,-29.73455026414659,-51.15714899698893,1203
1203,93120,são leopoldo,RS,-29.73574229649135,-51.15676280430385,1204
1204,93115,sao leopoldo,RS,-29.738349670018906,-51.14206451024764,1205
1205,93115,são leopoldo,RS,-29.737603664398197,-51.14780426025391,1206
1206,93113,sao leopoldo,RS,-29.747812271118164,-51.141971588134766,1207
1207,93113,são leopoldo,RS,-29.75106811523437,-51.14451599121094,1208
1208,93110,sao leopoldo,RS,-29.751009199354385,-51.14882659912109,1209
1209,93110,são leopoldo,RS,-29.7557014465332,-51.1480354309082,1210
1210,93056,sao leopoldo,RS,-29.761864757537843,-51.091725730896,1211
1211,93056,são leopoldo,RS,-29.764199447631835,-51.0906852722168,1212
1212,93054,sao leopoldo,RS,-29.75629644393921,-51.095496559143065,1213
1213,93054,são leopoldo,RS,-29.754992485046387,-51.09467124938965,1214
1214,93052,sao leopoldo,RS,-29.751257823063774,-51.100397036625786,1215
1215,93052,são leopoldo,RS,-29.75010267893473,-51.09911155700684,1216
1216,93050,sao leopoldo,RS,-29.75660896301269,-51.10733222961426,1217
1217,93050,são leopoldo,RS,-29.75651264190674,-51.11042594909668,1218
1218,93048,sao leopoldo,RS,-29.76407913934617,-51.11018607729957,1219
1219,93048,são leopoldo,RS,-29.760011672973636,-51.11266708374024,1220
1220,93046,sao leopoldo,RS,-29.77420352754139,-51.11383274623326,1221
1221,93046,são leopoldo,RS,-29.774337768554688,-51.11429901123047,1222
1222,93044,sao leopoldo,RS,-29.77465241750081,-51.11793721516927,1223
1223,93044,são leopoldo,RS,-29.781951904296875,-51.12794876098633,1224
1224,93042,sao leopoldo,RS,-29.76358553568522,-51.11904118855794,1225
1225,93042,são leopoldo,RS,-29.764765305952597,-51.12004332108931,1226
1226,93040,sao leopoldo,RS,-29.76934135250929,-51.12967784230302,1227
1227,93040,são leopoldo,RS,-29.768400382995605,-51.13259201049805,1228
1228,93037,sao leopoldo,RS,-29.79398970510445,-51.13054522346048,1229
1229,93037,são leopoldo,RS,-29.79245948791504,-51.13082831246512,1230
1230,93035,sao leopoldo,RS,-29.78651802628129,-51.12957975599501,1231
1231,93035,são leopoldo,RS,-29.78479480743408,-51.13362312316895,1232
1232,93032,sao leopoldo,RS,-29.77625375864457,-51.1309966262506,1233
1233,93032,são leopoldo,RS,-29.7792781829834,-51.12763366699219,1234
1234,93030,sao leopoldo,RS,-29.774980664253235,-51.138633728027344,1235
1235,93030,são leopoldo,RS,-29.774059295654297,-51.1391716003418,1236
1236,93025,sao leopoldo,RS,-29.76791909161736,-51.15988164789536,1237
1237,93025,são leopoldo,RS,-29.764299201965333,-51.16125755310058,1238
1238,93022,sao leopoldo,RS,-29.791917519135907,-51.14969491958618,1239
1239,93022,são leopoldo,RS,-29.7926723646081,-51.15215002972147,1240
1240,93020,sao leopoldo,RS,-29.780272971259222,-51.14822540283203,1241
1241,93020,são leopoldo,RS,-29.775005687366832,-51.14965438842773,1242
1242,93010,sao leopoldo,RS,-29.76668060218895,-51.14699858361548,1243
1243,93010,são leopoldo,RS,-29.76634302446919,-51.14679004300025,1244
1244,92990,eldorado do sul,RS,-30.015733818509684,-51.32857712702965,1245
1245,92900,mariana pimentel,RS,-30.354613304138184,-51.584228515625,1246
1246,92850,sertao santana,RS,-30.46108845302037,-51.60263424827939,1247
1247,92850,sertão santana,RS,-30.460004806518555,-51.597730000813804,1248
1248,92500,guaiba,RS,-30.121243287131424,-51.33555961528998,1249
1249,92500,guaíba,RS,-30.12276538213094,-51.34120311737061,1250
1250,92480,nova santa rita,RS,-29.86087312930968,-51.27283491739413,1251
1251,92441,canoas,RS,-29.88614177703857,-51.13673400878906,1252
1252,92440,canoas,RS,-29.90527811917392,-51.141398921157375,1253
1253,92425,canoas,RS,-29.882484737195465,-51.154210441990905,1254
1254,92420,canoas,RS,-29.885330017576827,-51.178237103401344,1255
1255,92415,canoas,RS,-29.90274175008138,-51.14085133870443,1256
1256,92412,canoas,RS,-29.89696964464689,-51.14666065416838,1257
1257,92410,canoas,RS,-29.89866000263631,-51.16289577964975,1258
1258,92340,canoas,RS,-29.90385048606179,-51.1853688326749,1259
1259,92330,canoas,RS,-29.901903429601948,-51.21251446976621,1260
1260,92325,canoas,RS,-29.907549525416176,-51.223026541776434,1261
1261,92323,canoas,RS,-29.92521095275879,-51.19519017537435,1262
1262,92320,canoas,RS,-29.92277753036634,-51.19922391503258,1263
1263,92314,canoas,RS,-29.920151392618816,-51.18367258707682,1264
1264,92310,canoas,RS,-29.91623001320417,-51.18816005351932,1265
1265,92200,canoas,RS,-29.95477335076583,-51.18588571895955,1266
1266,92130,canoas,RS,-29.955484365488022,-51.16323258040787,1267
1267,92120,canoas,RS,-29.949839250884786,-51.1684938973754,1268
1268,92110,canoas,RS,-29.93731407786525,-51.16997497026311,1269
1269,92035,canoas,RS,-29.913725149436075,-51.126470159311765,1270
1270,92032,canoas,RS,-29.912212614579637,-51.14386562000622,1271
1271,92031,canoas,RS,-29.9124698638916,-51.1501579284668,1272
1272,92030,canoas,RS,-29.91940291334943,-51.14505884124012,1273
1273,92027,canoas,RS,-29.926897048950195,-51.14643859863281,1274
1274,92025,canoas,RS,-29.92414615894186,-51.1616345438464,1275
1275,92022,canoas,RS,-29.916210174560547,-51.157837867736816,1276
1276,92020,canoas,RS,-29.91700474183951,-51.17176531321967,1277
1277,92010,canoas,RS,-29.916961607725725,-51.179846929467246,1278
1278,91920,porto alegre,RS,-30.111750860471982,-51.243896054791975,1279
1279,91910,porto alegre,RS,-30.10311431090037,-51.24261093139648,1280
1280,91900,porto alegre,RS,-30.107636751049625,-51.25045035703339,1281
1281,91810,porto alegre,RS,-30.085723876953125,-51.247535705566406,1282
1282,91798,porto alegre,RS,-30.178749084472656,-51.14277648925781,1283
1283,91796,porto alegre,RS,-30.17060089111328,-51.081016540527344,1284
1284,91795,porto alegre,RS,-30.15363802228655,-51.14877210344587,1285
1285,91793,porto alegre,RS,-30.14836516747108,-51.14650667630709,1286
1286,91792,porto alegre,RS,-30.15305016257546,-51.14099086414684,1287
1287,91791,porto alegre,RS,-30.14758682250977,-51.12713851928711,1288
1288,91790,porto alegre,RS,-30.15321033372792,-51.14326582042449,1289
1289,91788,porto alegre,RS,-30.152809479657343,-51.16557951534496,1290
1290,91787,porto alegre,RS,-30.15748610079867,-51.15654982409431,1291
1291,91786,porto alegre,RS,-30.18649559020996,-51.14346923828125,1292
1292,91785,porto alegre,RS,-30.20105361938477,-51.1309700012207,1293
1293,91782,porto alegre,RS,-30.21401023864746,-51.12691116333008,1294
1294,91781,porto alegre,RS,-30.185708250318253,-51.1743563243321,1295
1295,91780,porto alegre,RS,-30.197932685293804,-51.1813114445384,1296
1296,91778,porto alegre,RS,-30.175020027160645,-51.18166809082031,1297
1297,91771,porto alegre,RS,-30.15756607055664,-51.215518951416016,1298
1298,91770,porto alegre,RS,-30.15114648577193,-51.21736201434068,1299
1299,91760,porto alegre,RS,-30.13067308548958,-51.2337007522583,1300
1300,91755,porto alegre,RS,-30.16044581833706,-51.19538141066028,1301
1301,91751,porto alegre,RS,-30.130842404944875,-51.21798285368447,1302
1302,91750,porto alegre,RS,-30.12574979341947,-51.2085874410776,1303
1303,91740,porto alegre,RS,-30.10866831696552,-51.22225363358207,1304
1304,91720,porto alegre,RS,-30.08614772160848,-51.21011026170519,1305
1305,91712,porto alegre,RS,-30.096152958117035,-51.17970055028012,1306
1306,91710,porto alegre,RS,-30.077454812186105,-51.193185806274414,1307
1307,91570,porto alegre,RS,-30.11081812333088,-51.10700147979114,1308
1308,91560,porto alegre,RS,-30.11966503991021,-51.10761706034342,1309
1309,91550,porto alegre,RS,-30.093451171624856,-51.13622127595495,1310
1310,91540,porto alegre,RS,-30.08147539411272,-51.1302083993887,1311
1311,91530,porto alegre,RS,-30.06107214939447,-51.15950459609797,1312
1312,91520,porto alegre,RS,-30.068075510660808,-51.166947224934894,1313
1313,91510,porto alegre,RS,-30.071335068668223,-51.17775105855551,1314
1314,91509,porto alegre,RS,-30.0765380859375,-51.12485122680664,1315
1315,91501,porto alegre,RS,-30.0765380859375,-51.12485122680664,1316
1316,91450,porto alegre,RS,-30.046833707796814,-51.1360494601016,1317
1317,91440,porto alegre,RS,-30.059878540039065,-51.146188201904295,1318
1318,91430,porto alegre,RS,-30.05078409795892,-51.14274863674216,1319
1319,91420,porto alegre,RS,-30.045558588845388,-51.1610518183027,1320
1320,91410,porto alegre,RS,-30.050118926772495,-51.16690450682676,1321
1321,91380,porto alegre,RS,-30.016365413008064,-51.14349371811439,1322
1322,91370,porto alegre,RS,-30.01588992218473,-51.14861252058798,1323
1323,91360,porto alegre,RS,-30.020229018361945,-51.15471508628443,1324
1324,91350,porto alegre,RS,-30.01552840868632,-51.162708330154416,1325
1325,91349,porto alegre,RS,-30.025304794311523,-51.16329193115234,1326
1326,91340,porto alegre,RS,-30.02217757432981,-51.16906918977436,1327
1327,91330,porto alegre,RS,-30.03356599305805,-51.16255958958676,1328
1328,91320,porto alegre,RS,-30.03345899112889,-51.15138544801806,1329
1329,91310,porto alegre,RS,-30.041919326782228,-51.15143714904785,1330
1330,91280,porto alegre,RS,-30.044899622599285,-51.09701792399088,1331
1331,91270,porto alegre,RS,-30.033349817449395,-51.11230971596458,1332
1332,91263,porto alegre,RS,-30.04510498046875,-51.10609436035156,1333
1333,91260,porto alegre,RS,-30.0386535462879,-51.12187856038411,1334
1334,91250,porto alegre,RS,-30.02263001033238,-51.10505240304129,1335
1335,91240,porto alegre,RS,-30.02299582330804,-51.11660264667712,1336
1336,91230,porto alegre,RS,-30.01829880002945,-51.125479683043466,1337
1337,91225,porto alegre,RS,-30.0346311120426,-51.14627596911262,1338
1338,91220,porto alegre,RS,-30.019007849314857,-51.13751753549728,1339
1339,91215,porto alegre,RS,-30.030452919006347,-51.14038543701172,1340
1340,91210,porto alegre,RS,-30.038009111271347,-51.144626839216365,1341
1341,91180,porto alegre,RS,-30.0103164269374,-51.10605324231661,1342
1342,91175,porto alegre,RS,-29.97593116760254,-51.195919036865234,1343
1343,91170,porto alegre,RS,-29.99999509538923,-51.09626337946678,1344
1344,91160,porto alegre,RS,-29.9955649656408,-51.10254029666676,1345
1345,91150,porto alegre,RS,-30.00326035541037,-51.11873490706734,1346
1346,91140,porto alegre,RS,-29.988122854659807,-51.11775218906687,1347
1347,91130,porto aelgre,RS,-29.99581718444824,-51.12899017333984,1348
1348,91130,porto alegre,RS,-30.004395461201074,-51.13115792725217,1349
1349,91120,porto alegre,RS,-29.98452563285828,-51.13010044097901,1350
1350,91110,porto alegre,RS,-30.00012840997605,-51.1364733741397,1351
1351,91060,porto alegre,RS,-30.00270682289487,-51.14562529609317,1352
1352,91050,porto alegre,RS,-30.004403656179253,-51.15204290910201,1353
1353,91040,porto alegre,RS,-30.005717792208237,-51.16054259406196,1354
1354,91030,porto alegre,RS,-30.00701532761256,-51.17488765716553,1355
1355,91020,porto alegre,RS,-30.003563785552977,-51.191880989074704,1356
1356,91010,porto alegre,RS,-30.0100503612209,-51.166255435428106,1357
1357,90880,porto alegre,RS,-30.06081360077189,-51.21610962341879,1358
1358,90870,porto alegre,RS,-30.07397575378418,-51.209209543863935,1359
1359,90850,porto alegre,RS,-30.065786749915738,-51.22599394131551,1360
1360,90840,porto alegre,RS,-30.07754343338595,-51.22280103377714,1361
1361,90830,porto alegre,RS,-30.08987673934625,-51.22679367843939,1362
1362,90820,porto alegre,RS,-30.09046756519991,-51.23553040448357,1363
1363,90810,porto alegre,RS,-30.07796622351777,-51.23964145029191,1364
1364,90771,porto alegre,RS,-30.158090591430664,-51.21417999267578,1365
1365,90690,porto alegre,RS,-30.050518879523644,-51.179855640117935,1366
1366,90680,porto alegre,RS,-30.064709289401183,-51.192293391508215,1367
1367,90670,porto alegre,RS,-30.04880628451495,-51.188674523796834,1368
1368,90660,porto alegre,RS,-30.065165548041318,-51.1998405456543,1369
1369,90650,porto alegre,RS,-30.054736852645878,-51.19956010580063,1370
1370,90640,porto alegre,RS,-30.052808178795708,-51.203499502605865,1371
1371,90630,porto alegre,RS,-30.043567789011988,-51.19507128616859,1372
1372,90620,porto alegre,RS,-30.04992482536717,-51.20192265092281,1373
1373,90619,porto alegre,RS,-30.05708694458008,-51.1741828918457,1374
1374,90610,porto alegre,RS,-30.050784870430277,-51.19506125979953,1375
1375,90570,porto alegre,RS,-30.02197068126489,-51.20246381286188,1376
1376,90560,porto alegre,RS,-30.020688641972903,-51.20070590492056,1377
1377,90550,porto alegre,RS,-30.01356856355962,-51.190248469716494,1378
1378,90540,porto alegre,RS,-30.017451362176374,-51.18959335847335,1379
1379,90520,porto alegre,RS,-30.01607291392791,-51.178921430538864,1380
1380,90510,porto alegre,RS,-30.02457928657532,-51.19988602399826,1381
1381,90480,porto alegre,RS,-30.02640311284499,-51.18035210262645,1382
1382,90470,porto alegre,RS,-30.033513767297187,-51.1804727253161,1383
1383,90460,porto alegre,RS,-30.04001801778255,-51.18716467168343,1384
1384,90450,porto alegre,RS,-30.028998185884586,-51.18923923307578,1385
1385,90440,porto alegre,RS,-30.027676440299825,-51.194556033357664,1386
1386,90430,porto alegre,RS,-30.02970202585285,-51.20251925607746,1387
1387,90420,porto alegre,RS,-30.035780950309405,-51.20115085676605,1388
1388,90410,porto alegre,RS,-30.041349781884087,-51.18608903884888,1389
1389,90251,porto alegre,RS,-29.97377586364746,-51.191551208496094,1390
1390,90250,porto alegre,RS,-29.981610165895336,-51.18858588002894,1391
1391,90245,porto alegre,RS,-29.983958350287544,-51.1934667163425,1392
1392,90241,porto alegre,RS,-30.0058536529541,-51.204715728759766,1393
1393,90240,porto alegre,RS,-30.004097049362997,-51.196319082508914,1394
1394,90231,porto alegre,RS,-30.009775161743164,-51.20172500610352,1395
1395,90230,porto alegre,RS,-30.008181536639174,-51.20130419857288,1396
1396,90220,porto alegre,RS,-30.02113707738978,-51.20967428192838,1397
1397,90200,porto alegre,RS,-29.98293516370985,-51.16871902677748,1398
1398,90170,porto alegre,RS,-30.04420280456543,-51.2258186340332,1399
1399,90169,porto alegre,RS,-30.048349380493164,-51.21768951416016,1400
1400,90160,porto alegre,RS,-30.05100723549172,-51.217957496643066,1401
1401,90150,porto alegre,RS,-30.05256805419922,-51.22167259852092,1402
1402,90130,porto alegre,RS,-30.052226072989853,-51.220905841596974,1403
1403,90120,porto alegre,RS,-30.03775978088379,-51.18020248413086,1404
1404,90119,porto alegre,RS,-30.04153060913086,-51.228782653808594,1405
1405,90110,porto alegre,RS,-30.04966223451513,-51.227081795415934,1406
1406,90090,porto alegre,RS,-30.01319630940755,-51.25716044108073,1407
1407,90050,porto alegre,RS,-30.03962887067599,-51.22263308214652,1408
1408,90040,porto alegre,RS,-30.041161414904472,-51.21366070478391,1409
1409,90038,porto alegre,RS,-30.02634620666504,-51.22249984741211,1410
1410,90035,porto alegre,RS,-30.031332291149702,-51.21280242419634,1411
1411,90030,porto alegre,RS,-30.02682377467646,-51.22181387928045,1412
1412,90029,porto alegre,RS,-30.032032012939453,-51.23599243164063,1413
1413,90027,porto alegre,RS,-30.03012466430664,-51.2303466796875,1414
1414,90022,porto alegre,RS,-30.89900493621826,-51.773284912109375,1415
1415,90020,porto alegre,RS,-30.030589437635165,-51.2276973543859,1416
1416,90018,porto alegre,RS,-30.029507710383488,-51.23240016056941,1417
1417,90013,porto alegre,RS,-30.037309858534076,-51.23669899834527,1418
1418,90010,porto alegre,RS,-30.033212770634155,-51.231437732282046,1419
1419,90002,porto alegre,RS,-30.028364181518555,-51.2305908203125,1420
1420,90001,porto alegre,RS,-30.028364181518555,-51.2305908203125,1421
1421,89998,novo horizonte,SC,-26.450804392496742,-52.82987721761068,1422
1422,89990,sao lourenco do oeste,SC,-26.363700591766083,-52.85024405814506,1423
1423,89990,são lourenço do oeste,SC,-26.360677639643352,-52.85261551539103,1424
1424,89985,palma sola,SC,-26.348449302442145,-53.27739160711115,1425
1425,89983,santa terezinha do progresso,SC,-26.601978302001957,-53.168338775634766,1426
1426,89982,sao bernardino,SC,-26.473401705423992,-52.964945475260414,1427
1427,89982,são bernardino,SC,-26.472393035888672,-52.96319961547852,1428
1428,89980,campo ere,SC,-26.39567228805187,-53.08068945241529,1429
1429,89980,campo erê,SC,-26.39368367195129,-53.07915019989014,1430
1430,89970,anchieta,SC,-26.53662409782409,-53.33140878677368,1431
1431,89950,dionisio cerqueira,SC,-26.258573470577115,-53.63605671544229,1432
1432,89950,dionísio cerqueira,SC,-26.258058738708492,-53.63614387512207,1433
1433,89940,guaruja do sul,SC,-26.387521539415637,-53.52761595589774,1434
1434,89940,guarujá do sul,SC,-26.391424814860027,-53.526973724365234,1435
1435,89935,princesa,SC,-26.442318598429363,-53.60161717732748,1436
1436,89930,sao jose do cedro,SC,-26.45379818955513,-53.50101784484027,1437
1437,89930,são josé do cedro,SC,-26.45741195678711,-53.5131088256836,1438
1438,89925,belmonte,SC,-26.84354591369629,-53.58044106619699,1439
1439,89920,guaraciaba,SC,-26.59902067442198,-53.52117868371912,1440
1440,89915,santa helena,SC,-26.932387161254884,-53.61567001342773,1441
1441,89910,descanso,SC,-26.824398409935736,-53.502606422670425,1442
1442,89909,barra bonita,SC,-26.6549129486084,-53.43887710571289,1443
1443,89908,romelandia,SC,-26.67616081237793,-53.31980237093839,1444
1444,89908,romelândia,SC,-26.67822265625,-53.31887435913086,1445
1445,89906,paraiso,SC,-26.62346281324114,-53.67590032305037,1446
1446,89906,paraíso,SC,-26.619018077850345,-53.67471694946289,1447
1447,89905,bandeirante,SC,-26.76756531851632,-53.64012472970145,1448
1448,89900,sao miguel do oeste,SC,-26.733228080824063,-53.51775703057404,1449
1449,89900,são miguel do oeste,SC,-26.734252284554877,-53.516503614537854,1450
1450,89899,ipora do oeste,SC,-26.98827973279086,-53.53221589868719,1451
1451,89899,iporã do oeste,SC,-26.98676471710205,-53.53267555236816,1452
1452,89898,tunapolis,SC,-26.97115484873454,-53.638718605041504,1453
1453,89898,tunápolis,SC,-26.97247695922852,-53.64112091064453,1454
1454,89897,sao joao do oeste,SC,-27.201626459757488,-53.31024602254232,1455
1455,89897,são joão do oeste,SC,-27.096248626708984,-53.59440994262695,1456
1456,89896,itapiranga,SC,-27.171413557870046,-53.71479729243687,1457
1457,89895,riqueza,SC,-27.059609532356266,-53.3260931968689,1458
1458,89893,mondai,SC,-27.10162671407064,-53.40042124854194,1459
1459,89893,mondaí,SC,-27.09971237182617,-53.398231506347656,1460
1460,89891,iraceminha,SC,-26.823146956307543,-53.28163092476981,1461
1461,89890,cunha pora,SC,-26.891383209228515,-53.17138305664062,1462
1462,89890,cunha porã,SC,-26.887796783447264,-53.17449951171875,1463
1463,89888,caibi,SC,-27.07434608459473,-53.2493569946289,1464
